uf,endereco,cidade,bairro,latitude,longitude,data_ocorrencia,hora_ocorrencia,presenca_agentes,acao_policial,unidades_policiais,motivo_principal,outros_recortes,tipo,situacao,idade,faixa_etaria,raca,genero,local,circunstancias_vitima,qualificacoes_vitima,status_servico,status_politico,posicao_politico,partido_político,posicao_agente,coorporacao_agente,status_agente,tipo_pessoa
Rio de Janeiro,"Laranjal, São Gonçalo - RJ, Brasil",SÃO GONÇALO,LARANJAL,-22.812829,-42.992906,2024-12-29,13:00:00,Não,Não,,Homicidio/Tentativa,Ataques armados sobre rodas,Pessoa,Morta,,Adulto,Não identificado,Homem cis,Sem identificação,Sem identificação,Não identificado,Não se aplica,Não se aplica,Não se aplica,,Não se aplica,Não se aplica,Não se aplica,Civíl
Rio de Janeiro,"Morro do Fubá (Complexo do Fubá) - Cascadura, Rio de Janeiro - RJ, 21311-130, Brasil",RIO DE JANEIRO,CASCADURA,-22.892324971301782,-43.33377861518315,2024-12-30,15:00:00,Não,Não,,Disputa,Bar,Pessoa,Morta,,Adulto,Não identificado,Não identificado,Sem identificação,Sem identificação,Não identificado,Não se aplica,Não se aplica,Não se aplica,,Não se aplica,Não se aplica,Não se aplica,Civíl
Rio de Janeiro,"Morro do Fubá (Complexo do Fubá) - Cascadura, Rio de Janeiro - RJ, 21311-130, Brasil",RIO DE JANEIRO,CASCADURA,-22.892324971301782,-43.33377861518315,2024-12-30,15:00:00,Não,Não,,Disputa,Bar,Pessoa,Morta,,Adulto,Não identificado,Não identificado,Bar,Sem identificação,Não identificado,Não se aplica,Não se aplica,Não se aplica,,Não se aplica,Não se aplica,Não se aplica,Civíl
Rio de Janeiro," Jardim Jose Bonifacio, São João de Meriti - RJ, 25565-330, Brasil",SÃO JOÃO DE MERITI,VENDA VELHA,-22.795301199498475,-43.36105815026246,2024-12-31,20:00:00,Não,Não,,Homicidio/Tentativa,,Pessoa,Morta,,Adulto,Não identificado,Homem cis,Sem identificação,Sem identificação,Não identificado,Não se aplica,Não se aplica,Não se aplica,,Não se aplica,Não se aplica,Não se aplica,Civíl
Rio de Janeiro," Jardim Jose Bonifacio, São João de Meriti - RJ, 25565-330, Brasil",SÃO JOÃO DE MERITI,VENDA VELHA,-22.795301199498475,-43.36105815026246,2024-12-31,20:00:00,Não,Não,,Homicidio/Tentativa,,Pessoa,Morta,,Adulto,Não identificado,Homem cis,Sem identificação,Sem identificação,Não identificado,Não se aplica,Não se aplica,Não se aplica,,Não se aplica,Não se aplica,Não se aplica,Civíl
Rio de Janeiro,"Corte 8 (Complexo da Mangueirinha) - Vila Centenario, Duque de Caxias - RJ, 25030-010, Brasil",DUQUE DE CAXIAS,CENTENARIO,-22.77252271,-43.30980255,2024-12-31,10:30:00,Sim,Sim,PM,Tentativa/Roubo de cargas,,Pessoa,Morta,65.0,Idoso,Não identificado,Homem cis,Sem identificação,Bala perdida,Não identificado,Não se aplica,Não se aplica,Não se aplica,,Não se aplica,Não se aplica,Não se aplica,Civíl
Pernambuco,"Jardim Uchôa - Rua Santa Joana D'arc - Areias, Recife - PE, Brasil",RECIFE,AREIAS,-8.1000521,-34.9369247,2024-12-31,22:30:00,Não,Não,,Homicidio/Tentativa,,Pessoa,Morta,25.0,Adulto,Não identificado,Homem cis,Sem identificação,Sem identificação,Não identificado,Não se aplica,Não se aplica,Não se aplica,,Não se aplica,Não se aplica,Não se aplica,Civíl
Pernambuco,"Sítio São Brás - R. do Sítio São Brás - Sítio dos Pintos, Recife - PE, 52171-170, Brasil",RECIFE,SITIO DOS PINTOS,-8.0185465,-34.9590977,2024-12-31,20:00:00,Não,Não,,Homicidio/Tentativa,,Pessoa,Morta,35.0,Adulto,Negra,Homem cis,Sem identificação,Sem identificação,PPTE,Não se aplica,Não se aplica,Não se aplica,,Não se aplica,Não se aplica,Não se aplica,Civíl
Pernambuco,"Rua Armando Soriano - Prado, Recife - PE, Brasil",RECIFE,PRADO,-8.0572111,-34.9210484,2024-12-31,21:15:00,Não,Não,,Homicidio/Tentativa,,Pessoa,Morta,21.0,Adulto,Negra,Homem cis,Sem identificação,Sem identificação,Não identificado,Não se aplica,Não se aplica,Não se aplica,,Não se aplica,Não se aplica,Não se aplica,Civíl
Pernambuco,"Av. João Pereira de Oliveira - Janga, Paulista, Brasil",PAULISTA,JANGA,-7.923929209104262,-34.83861542640617,2024-12-31,00:00:00,Não,Não,,Homicidio/Tentativa,,Pessoa,Ferida,26.0,Adulto,Não identificado,Homem cis,Outros,Sem identificação,Não identificado,Não se aplica,Não se aplica,Não se aplica,,Não se aplica,Não se aplica,Não se aplica,Civíl
Pernambuco,"Av. João Pereira de Oliveira - Janga, Paulista, Brasil",PAULISTA,JANGA,-7.923929209104262,-34.83861542640617,2024-12-31,00:00:00,Não,Não,,Homicidio/Tentativa,,Pessoa,Ferida,33.0,Adulto,Não identificado,Homem cis,Outros,Sem identificação,Não identificado,Não se aplica,Não se aplica,Não se aplica,,Não se aplica,Não se aplica,Não se aplica,Civíl
Pernambuco,"Rua da Saudade - Malaquias, Cabo de Santo Agostinho - PE, Brasil",CABO DE SANTO AGOSTINHO,MALAQUIAS,-8.2922218,-35.0379658,2024-12-31,04:00:00,Não,Não,,Homicidio/Tentativa,,Pessoa,Morta,25.0,Adulto,Negra,Homem cis,Residência,Sem identificação,Não identificado,Não se aplica,Não se aplica,Não se aplica,,Não se aplica,Não se aplica,Não se aplica,Civíl
Bahia,"R. da Adutora - Planeta dos Macacos - São Cristóvão, Salvador - BA, 41510-350, Brasil",SALVADOR,SAO CRISTOVAO,-12.918821721398036,-38.3509560021268,2024-12-31,14:00:00,Não,Não,,Homicidio/Tentativa,,Pessoa,Morta,30.0,Adulto,Negra,Homem cis,Sem identificação,Sem identificação,Não identificado,Não se aplica,Não se aplica,Não se aplica,,Não se aplica,Não se aplica,Não se aplica,Civíl
Bahia,"R. Voluntários da Pátria, Santa Luzia - Lobato, Salvador - BA, Brasil",SALVADOR,LOBATO,-12.927960501076134,-38.48561078256439,2024-12-31,13:00:00,Sim,Sim,RONDESP BTS,Ação policial,,Pessoa,Morta,,Adulto,Negra,Homem cis,Sem identificação,Sem identificação,Não identificado,Não se aplica,Não se aplica,Não se aplica,,Não se aplica,Não se aplica,Não se aplica,Civíl
Pernambuco,"Igarassu, PE, Brasil",IGARASSU,NI,-7.842699699999999,-34.9074381,2024-12-31,00:00:00,Sim,Sim,Polícia Civil,Ação policial,,Pessoa,Ferida,,Adulto,Não identificado,Homem cis,Sem identificação,Sem identificação,Não identificado,Não se aplica,Não se aplica,Não se aplica,,Não se aplica,Não se aplica,Não se aplica,Civíl
Rio de Janeiro,"Av. Mal. Rondon - Engenho Novo, Rio de Janeiro - RJ, 20950-312, Brasil",RIO DE JANEIRO,ENGENHO NOVO,-22.904391112626428,-43.26413226679535,2024-12-31,11:30:00,Não,Não,,Disputa,,Pessoa,Morta,61.0,Idoso,Não identificado,Mulher cis,Sem identificação,Bala perdida,Não identificado,Não se aplica,Não se aplica,Não se aplica,,Não se aplica,Não se aplica,Não se aplica,Civíl
Bahia,"R. Dois de Fevereiro, Centro, Lauro de Freitas - BA, Brasil",LAURO DE FREITAS,CENTRO,-12.89936077856316,-38.32205948044693,2024-12-29,22:00:00,Não,Não,,Homicidio/Tentativa,,Pessoa,Morta,45.0,Adulto,Não identificado,Homem cis,Sem identificação,Sem identificação,Não identificado,Não se aplica,Não se aplica,Não se aplica,,Não se aplica,Não se aplica,Não se aplica,Civíl
Pernambuco,"Córrego do Nozinho - Águas Compridas, Olinda - PE, Brasil",OLINDA,AGUAS COMPRIDAS,-7.9941901,-34.8966566,2024-12-31,00:00:00,Não,Não,,Homicidio/Tentativa,,Pessoa,Ferida,31.0,Adulto,Não identificado,Homem cis,Sem identificação,Sem identificação,Não identificado,Não se aplica,Não se aplica,Não se aplica,,Não se aplica,Não se aplica,Não se aplica,Civíl
Bahia,"R. Ana Galvão- Camaçari de Dentro, Camaçari - BA, Brasil",CAMACARI,CAMACARI DE DENTRO,-12.704369187529062,-38.33472581491644,2024-12-30,19:50:00,Não,Não,,Homicidio/Tentativa,,Pessoa,Morta,25.0,Adulto,Negra,Homem cis,Sem identificação,Sem identificação,Não identificado,Não se aplica,Não se aplica,Não se aplica,,Não se aplica,Não se aplica,Não se aplica,Civíl
Pernambuco,"Av. Sen. Nilo de Souza Coelho, Olinda - PE, 53300-380, Brasil",OLINDA,OURO PRETO,-7.997298169447907,-34.87227144043748,2024-12-30,00:00:00,Não,Não,,Homicidio/Tentativa,,Pessoa,Morta,31.0,Adulto,Negra,Homem cis,Automóvel,Sem identificação,"Outros,PPTE",Não identificado,Não se aplica,Não se aplica,,Não se aplica,Não se aplica,Não se aplica,Civíl
Bahia,"R. 16 de Agosto - São Cristóvão, Salvador - BA, Brasil",SALVADOR,SAO CRISTOVAO,-12.911351080305186,-38.35647401150055,2024-12-30,18:20:00,Não,Não,,Ataque a civis,,Pessoa,Ferida,,Adulto,Não identificado,Homem cis,Sem identificação,Sem identificação,Não identificado,Não se aplica,Não se aplica,Não se aplica,,Não se aplica,Não se aplica,Não se aplica,Civíl
Bahia,"R. 16 de Agosto - São Cristóvão, Salvador - BA, Brasil",SALVADOR,SAO CRISTOVAO,-12.911351080305186,-38.35647401150055,2024-12-30,18:20:00,Não,Não,,Ataque a civis,,Pessoa,Ferida,,Adulto,Não identificado,Homem cis,Sem identificação,Sem identificação,Não identificado,Não se aplica,Não se aplica,Não se aplica,,Não se aplica,Não se aplica,Não se aplica,Civíl
Bahia,"R. 16 de Agosto - São Cristóvão, Salvador - BA, Brasil",SALVADOR,SAO CRISTOVAO,-12.911351080305186,-38.35647401150055,2024-12-30,18:20:00,Não,Não,,Ataque a civis,,Pessoa,Ferida,,Adulto,Não identificado,Mulher cis,Sem identificação,Sem identificação,Não identificado,Não se aplica,Não se aplica,Não se aplica,,Não se aplica,Não se aplica,Não se aplica,Civíl
Bahia,"R. 16 de Agosto - São Cristóvão, Salvador - BA, Brasil",SALVADOR,SAO CRISTOVAO,-12.911351080305186,-38.35647401150055,2024-12-30,18:20:00,Não,Não,,Ataque a civis,,Pessoa,Morta,56.0,Adulto,Não identificado,Homem cis,Sem identificação,Sem identificação,Não identificado,Não se aplica,Não se aplica,Não se aplica,,Não se aplica,Não se aplica,Não se aplica,Civíl
Bahia,"R. 16 de Agosto - São Cristóvão, Salvador - BA, Brasil",SALVADOR,SAO CRISTOVAO,-12.911351080305186,-38.35647401150055,2024-12-30,18:20:00,Não,Não,,Ataque a civis,,Pessoa,Ferida,,Adulto,Não identificado,Homem cis,Sem identificação,Sem identificação,Não identificado,Não se aplica,Não se aplica,Não se aplica,,Não se aplica,Não se aplica,Não se aplica,Civíl
Rio de Janeiro,"Rua Major Goudin - Venda da Cruz, São Gonçalo - RJ, Brasil",SÃO GONÇALO,VENDA DA CRUZ,-22.8618208,-43.0860854,2024-12-28,22:00:00,Não,Não,,Tentativa/Roubo,,Pessoa,Ferida,16.0,Adolescente,Não identificado,Homem cis,Sem identificação,Sem identificação,Não identificado,Não se aplica,Não se aplica,Não se aplica,,Não se aplica,Não se aplica,Não se aplica,Civíl
Rio de Janeiro,"Rua Major Goudin - Venda da Cruz, São Gonçalo - RJ, Brasil",SÃO GONÇALO,VENDA DA CRUZ,-22.8618208,-43.0860854,2024-12-28,22:00:00,Não,Não,,Tentativa/Roubo,,Pessoa,Ferida,18.0,Adulto,Não identificado,Homem cis,Sem identificação,Sem identificação,Não identificado,Não se aplica,Não se aplica,Não se aplica,,Não se aplica,Não se aplica,Não se aplica,Civíl
Pernambuco,"Pte. dos Carvalhos, Cabo de Santo Agostinho - PE, 54580-195, Brasil",CABO DE SANTO AGOSTINHO,PONTE DOS CARVALHOS,-8.238063384315858,-34.980197584640095,2024-12-29,00:00:00,Não,Não,,Homicidio/Tentativa,,Pessoa,Morta,46.0,Adulto,Negra,Homem cis,Sem identificação,Sem identificação,Não identificado,Não se aplica,Não se aplica,Não se aplica,,Não se aplica,Não se aplica,Não se aplica,Civíl
Pernambuco,"Torres Galvão, Paulista - PE, Brasil",PAULISTA,TORRES GALVAO,-7.9557997,-34.8754852,2024-12-28,11:00:00,Sim,Sim,Polícia Militar,Ação policial,,Pessoa,Ferida,30.0,Adulto,Não identificado,Homem cis,Sem identificação,Sem identificação,Outros,Não identificado,Não se aplica,Não se aplica,,Não se aplica,Não se aplica,Não se aplica,Civíl
Pernambuco,"Cajueiro, Recife - PE, Brasil",RECIFE,CAJUEIRO,-8.011356100000002,-34.8858658,2024-12-30,00:00:00,Sim,Não,Policial Militar 12BPM,Tentativa/Roubo,,Pessoa,Ferida,,Adulto,Não identificado,Homem cis,Sem identificação,Sem identificação,Não identificado,Não se aplica,Não se aplica,Não se aplica,,Não se aplica,Não se aplica,Não se aplica,Civíl
Pernambuco,"Av. Agostinho Nunes Machado - Conceição, Itapissuma - PE, 53700-000, Brasil",ITAPISSUMA,CONCEICAO,-7.771669161333301,-34.900196731723504,2024-12-30,00:00:00,Não,Não,,Homicidio/Tentativa,,Pessoa,Morta,31.0,Adulto,Negra,Homem cis,Sem identificação,Sem identificação,PPTE,Não se aplica,Não se aplica,Não se aplica,,Não se aplica,Não se aplica,Não se aplica,Civíl
Pernambuco,"Alto do Pascoal - Rua Ladeira de Pedra - Água Fria, Recife - PE, Brasil",RECIFE,AGUA FRIA,-8.0163646,-34.9003968,2024-12-30,06:00:00,Não,Não,,Homicidio/Tentativa,,Pessoa,Morta,29.0,Adulto,Branca,Homem cis,Sem identificação,Sem identificação,Mototaxista ,Não identificado,Não se aplica,Não se aplica,,Não se aplica,Não se aplica,Não se aplica,Civíl
Pernambuco,"Curado, Recife - PE, 50950-000, Brasil",RECIFE,CURADO,-8.068960063171494,-34.98087108039554,2024-12-29,00:00:00,Não,Não,,Homicidio/Tentativa,,Pessoa,Morta,,Não identificado,Não identificado,Não identificado,Sem identificação,Encontro de cadáver,Não identificado,Não se aplica,Não se aplica,Não se aplica,,Não se aplica,Não se aplica,Não se aplica,Civíl
Pernambuco,"Loteamento Grande Recife - R. Moçambique - Sucupira, Jaboatão dos Guararapes - PE, 54280-190, Brasil",JABOATAO DOS GUARARAPES,SUCUPIRA,-8.0996414,-34.966342,2024-12-29,00:00:00,Não,Não,,Homicidio/Tentativa,,Pessoa,Morta,59.0,Adulto,Negra,Homem cis,Sem identificação,Sem identificação,Não identificado,Não se aplica,Não se aplica,Não se aplica,,Não se aplica,Não se aplica,Não se aplica,Civíl
Pernambuco,"Loteamento Grande Recife - R. Moçambique - Sucupira, Jaboatão dos Guararapes - PE, 54280-190, Brasil",JABOATAO DOS GUARARAPES,SUCUPIRA,-8.0996414,-34.966342,2024-12-29,00:00:00,Não,Não,,Homicidio/Tentativa,,Pessoa,Morta,56.0,Adulto,Negra,Homem cis,Sem identificação,Sem identificação,Não identificado,Não se aplica,Não se aplica,Não se aplica,,Não se aplica,Não se aplica,Não se aplica,Civíl
Pernambuco,"R. José Braz da Silva - Rosário, Cabo de Santo Agostinho - PE, 54520-715, Brasil",CABO DE SANTO AGOSTINHO,ROSARIO - PE 60,-8.308577865463675,-35.01848694940736,2024-12-29,00:00:00,Não,Não,,Homicidio/Tentativa,,Pessoa,Morta,22.0,Adulto,Negra,Homem cis,Sem identificação,Sem identificação,Não identificado,Não se aplica,Não se aplica,Não se aplica,,Não se aplica,Não se aplica,Não se aplica,Civíl
Pernambuco,"Comunidade Loteamento 92 - Av. Dom Carlos Coelho - Vila Rica, Jaboatão dos Guararapes - PE, Brasil",JABOATAO DOS GUARARAPES,VILA RICA,-8.1256051,-35.0302912,2024-12-29,00:00:00,Não,Não,,Homicidio/Tentativa,,Pessoa,Morta,18.0,Adulto,Negra,Homem cis,Sem identificação,Sem identificação,PPTE,Não se aplica,Não se aplica,Não se aplica,,Não se aplica,Não se aplica,Não se aplica,Civíl
Pernambuco,"Posto Shell - Av. Recife, San Martin, Recife - PE, 50910-380, Brasil",RECIFE,SAN MARTIN,-8.082369357806241,-34.93321489992915,2024-12-29,05:00:00,Não,Não,,Homicidio/Tentativa,,Pessoa,Ferida,,Adulto,Não identificado,Homem cis,Posto de gasolina,Sem identificação,Não identificado,Não se aplica,Não se aplica,Não se aplica,,Não se aplica,Não se aplica,Não se aplica,Civíl
Pernambuco,"Posto Shell - Av. Recife, San Martin, Recife - PE, 50910-380, Brasil",RECIFE,SAN MARTIN,-8.082369357806241,-34.93321489992915,2024-12-29,05:00:00,Não,Não,,Homicidio/Tentativa,,Pessoa,Morta,34.0,Adulto,Negra,Homem cis,Posto de gasolina,Sem identificação,PPTE,Não se aplica,Não se aplica,Não se aplica,,Não se aplica,Não se aplica,Não se aplica,Civíl
Pernambuco,"Matriz da Luz - R. São João - Nossa Sra. da Luz, São Lourenço da Mata - PE, Brasil",SAO LOURENCO DA MATA,NOSSA SENHORA DA LUZ,-8.042825285511405,-35.10201103053486,2024-12-29,00:00:00,Não,Não,,Homicidio/Tentativa,,Pessoa,Morta,17.0,Adolescente,Negra,Homem cis,Sem identificação,Sem identificação,Não identificado,Não se aplica,Não se aplica,Não se aplica,,Não se aplica,Não se aplica,Não se aplica,Civíl
Pernambuco,"R. Cel. Fernando Furtado - Iputinga, Recife - PE, 50731-284, Brasil",RECIFE,IPUTINGA,-8.04079832260638,-34.930286550074726,2024-12-28,00:00:00,Não,Não,,Homicidio/Tentativa,,Pessoa,Morta,,Adulto,Negra,Homem cis,Barbearia,Sem identificação,Outros,Em serviço,Não se aplica,Não se aplica,,Não se aplica,Não se aplica,Não se aplica,Civíl
Pernambuco,"Alto Dois Carneiros - R. Vinte - Dois Carneiros, Jaboatão dos Guararapes - PE, 54290-090, Brasil",JABOATAO DOS GUARARAPES,DOIS CARNEIROS,-8.1127374,-34.9657877,2024-12-29,00:00:00,Não,Não,,Homicidio/Tentativa,,Pessoa,Morta,18.0,Adulto,Não identificado,Homem cis,Sem identificação,Sem identificação,Não identificado,Não se aplica,Não se aplica,Não se aplica,,Não se aplica,Não se aplica,Não se aplica,Civíl
Rio de Janeiro,"Vila Pan-Americana - Jacarepaguá - Avenida Cláudio Besserman Vianna - Barra da Tijuca, Rio de Janeiro - RJ, Brasil",RIO DE JANEIRO,BARRA DA TIJUCA,-22.9730351,-43.35803689999999,2024-12-29,15:00:00,Não,Não,,Não identificado,,Pessoa,Ferida,58.0,Adulto,Não identificado,Mulher cis,Outros,Bala perdida,Não identificado,Não se aplica,Não se aplica,Não se aplica,,Não se aplica,Não se aplica,Não se aplica,Civíl
Rio de Janeiro,"Fontela - Vargem Pequena, Rio de Janeiro - RJ, 22795-711, Brasil",RIO DE JANEIRO,VARGEM PEQUENA,-22.9944043854936,-43.4458335703613,2024-12-28,21:00:00,Não,Não,,Homicidio/Tentativa,,Pessoa,Ferida,34.0,Adulto,Branca,Mulher cis,Automóvel,Sem identificação,Não identificado,Não se aplica,Não se aplica,Não se aplica,,Não se aplica,Não se aplica,Não se aplica,Civíl
Rio de Janeiro,"Fontela - Vargem Pequena, Rio de Janeiro - RJ, 22795-711, Brasil",RIO DE JANEIRO,VARGEM PEQUENA,-22.9944043854936,-43.4458335703613,2024-12-28,21:00:00,Não,Não,,Homicidio/Tentativa,,Pessoa,Ferida,,Adulto,Não identificado,Não identificado,Automóvel,Sem identificação,Motorista de aplicativo,Em serviço,Não se aplica,Não se aplica,,Não se aplica,Não se aplica,Não se aplica,Civíl
Bahia,"Barra Grande, Vera Cruz - BA, Brasil",VERA CRUZ,VERA CRUZ,-13.0423553,-38.6905861,2024-12-29,14:00:00,Não,Não,,Homicidio/Tentativa,,Pessoa,Ferida,,Adulto,Não identificado,Mulher cis,Automóvel,Sem identificação,Não identificado,Não se aplica,Não se aplica,Não se aplica,,Não se aplica,Não se aplica,Não se aplica,Civíl
Bahia,"Barra Grande, Vera Cruz - BA, Brasil",VERA CRUZ,VERA CRUZ,-13.0423553,-38.6905861,2024-12-29,14:00:00,Não,Não,,Homicidio/Tentativa,,Pessoa,Morta,30.0,Adulto,Negra,Homem cis,Automóvel,Sem identificação,Não identificado,Não se aplica,Não se aplica,Não se aplica,,Não se aplica,Não se aplica,Não se aplica,Civíl
Bahia,"Rua Lagoa dos Patos - Lagoa dos Patos - Ipitanga, Lauro de Freitas/BA, 42706-560",LAURO DE FREITAS,IPITANGA,-12.894690487432966,-38.30437052733015,2024-12-29,13:30:00,Sim,Sim,"52ª CIPM, RONDESP, BOPE ",Disputa,Bar,Pessoa,Morta,18.0,Adulto,Não identificado,Homem cis,Bar,Chacina,Não identificado,Não se aplica,Não se aplica,Não se aplica,,Não se aplica,Não se aplica,Não se aplica,Civíl
Bahia,"Rua Lagoa dos Patos - Lagoa dos Patos - Ipitanga, Lauro de Freitas/BA, 42706-560",LAURO DE FREITAS,IPITANGA,-12.894690487432966,-38.30437052733015,2024-12-29,13:30:00,Sim,Sim,"52ª CIPM, RONDESP, BOPE ",Disputa,Bar,Pessoa,Morta,23.0,Adulto,Negra,Homem cis,Bar,Chacina,Não identificado,Não se aplica,Não se aplica,Não se aplica,,Não se aplica,Não se aplica,Não se aplica,Civíl
Bahia,"Rua Lagoa dos Patos - Lagoa dos Patos - Ipitanga, Lauro de Freitas/BA, 42706-560",LAURO DE FREITAS,IPITANGA,-12.894690487432966,-38.30437052733015,2024-12-29,13:30:00,Sim,Sim,"52ª CIPM, RONDESP, BOPE ",Disputa,Bar,Pessoa,Morta,44.0,Adulto,Negra,Homem cis,Bar,Chacina,Não identificado,Não se aplica,Não se aplica,Não se aplica,,Não se aplica,Não se aplica,Não se aplica,Civíl
Bahia,"Chafariz, Vila Praiana - Lauro de Freitas - BA",LAURO DE FREITAS,VILA PRAIANA,-12.897170638191533,-38.30795446001955,2024-12-29,11:00:00,Não,Não,,Disputa,Bar,Pessoa,Morta,,Adulto,Não identificado,Homem cis,Bar,Chacina,Não identificado,Não se aplica,Não se aplica,Não se aplica,,Não se aplica,Não se aplica,Não se aplica,Civíl
Bahia,"Chafariz, Vila Praiana - Lauro de Freitas - BA",LAURO DE FREITAS,VILA PRAIANA,-12.897170638191533,-38.30795446001955,2024-12-29,11:00:00,Não,Não,,Disputa,Bar,Pessoa,Morta,,Adulto,Não identificado,Homem cis,Bar,Chacina,Não identificado,Não se aplica,Não se aplica,Não se aplica,,Não se aplica,Não se aplica,Não se aplica,Civíl
Bahia,"Chafariz, Vila Praiana - Lauro de Freitas - BA",LAURO DE FREITAS,VILA PRAIANA,-12.897170638191533,-38.30795446001955,2024-12-29,11:00:00,Não,Não,,Disputa,Bar,Pessoa,Morta,,Adulto,Não identificado,Homem cis,Bar,Chacina,Não identificado,Não se aplica,Não se aplica,Não se aplica,,Não se aplica,Não se aplica,Não se aplica,Civíl
Bahia,"R. Acácia Vermelha - Gleba E, Camaçari - BA",CAMACARI,GLEBA E,-12.726373095450144,-38.3300260846546,2024-12-27,19:00:00,Não,Não,,Homicidio/Tentativa,,Pessoa,Ferida,,Adulto,Não identificado,Homem cis,Barbearia,Sem identificação,Não identificado,Não se aplica,Não se aplica,Não se aplica,,Não se aplica,Não se aplica,Não se aplica,Civíl
Rio de Janeiro,"Av. Brasil - São Cristóvão, Rio de Janeiro - RJ, 20940-070, Brasil",RIO DE JANEIRO,SAO CRISTOVAO,-22.888743954128177,-43.22181971321126,2024-12-28,22:30:00,Sim,Sim,4 BPM,Ação policial,,Pessoa,Ferida,,Adulto,Não identificado,Homem cis,Sem identificação,Sem identificação,Agente de segurança,Não se aplica,Não se aplica,Não se aplica,,Não identificado,Polícia Militar,Em serviço,Agente
Bahia,"Vila Verde - Mussurunga, Salvador - BA",SALVADOR,MUSSURUNGA,-12.911183793050949,-38.37640820338162,2024-12-28,17:00:00,Não,Não,,Homicidio/Tentativa,,Pessoa,Morta,14.0,Adolescente,Negra,Mulher cis,Sem identificação,Sem identificação,Não identificado,Não se aplica,Não se aplica,Não se aplica,,Não se aplica,Não se aplica,Não se aplica,Civíl
Bahia,Areia Branca - Lauro de Freitas - BA,LAURO DE FREITAS,AREIA BRANCA,-12.835626715288983,-38.35224384675762,2024-12-27,22:00:00,Sim,Sim,PM,Ação policial,,Pessoa,Morta,,Adulto,Não identificado,Homem cis,Sem identificação,Sem identificação,Não identificado,Não se aplica,Não se aplica,Não se aplica,,Não se aplica,Não se aplica,Não se aplica,Civíl
Bahia,Areia Branca - Lauro de Freitas - BA,LAURO DE FREITAS,AREIA BRANCA,-12.835626715288983,-38.35224384675762,2024-12-27,22:00:00,Sim,Sim,PM,Ação policial,,Pessoa,Morta,,Adulto,Não identificado,Homem cis,Sem identificação,Sem identificação,Não identificado,Não se aplica,Não se aplica,Não se aplica,,Não se aplica,Não se aplica,Não se aplica,Civíl
Bahia,"Palestina, Salvador - BA",SALVADOR,PALESTINA,-12.86484020984374,-38.42377793649641,2024-12-29,00:00:00,Não,Não,,Homicidio/Tentativa,,Pessoa,Morta,,Adulto,Negra,Homem cis,Sem identificação,Encontro de cadáver,Não identificado,Não se aplica,Não se aplica,Não se aplica,,Não se aplica,Não se aplica,Não se aplica,Civíl
Bahia,"R. Ipanema - Nordeste, Salvador - BA",SALVADOR,NORDESTE DE AMARALINA,-13.007101074120898,-38.472854417703445,2024-12-28,23:00:00,Sim,Sim,40ª CIPM (PETO),Ação policial,,Pessoa,Morta,,Adulto,Negra,Homem cis,Sem identificação,Sem identificação,Não identificado,Não se aplica,Não se aplica,Não se aplica,,Não se aplica,Não se aplica,Não se aplica,Civíl
Bahia,"R. Ipanema - Nordeste, Salvador - BA",SALVADOR,NORDESTE DE AMARALINA,-13.007101074120898,-38.472854417703445,2024-12-28,23:00:00,Sim,Sim,40ª CIPM (PETO),Ação policial,,Pessoa,Ferida,,Adulto,Não identificado,Homem cis,Sem identificação,Sem identificação,Agente de segurança,Não se aplica,Não se aplica,Não se aplica,,Soldado,Polícia Militar,Em serviço,Agente
Bahia,"R. dos Ferroviários - São João do Cabrito, Salvador - BA",SALVADOR,SAO JOAO DO CABRITO,-12.90021331079332,-38.482751102364325,2024-12-28,22:00:00,Não,Não,,Homicidio/Tentativa,,Pessoa,Morta,,Adulto,Negra,Homem cis,Sem identificação,Sem identificação,Não identificado,Não se aplica,Não se aplica,Não se aplica,,Não se aplica,Não se aplica,Não se aplica,Civíl
Bahia,"Vila Canária, Salvador - BA",SALVADOR,VILA CANARIA,-12.91149778670668,-38.43920124781619,2024-12-28,14:00:00,Não,Não,,Homicidio/Tentativa,,Pessoa,Ferida,,Adulto,Não identificado,Homem cis,Automóvel,Sem identificação,Não identificado,Não se aplica,Não se aplica,Não se aplica,,Não se aplica,Não se aplica,Não se aplica,Civíl
Bahia,"Vila Canária, Salvador - BA",SALVADOR,VILA CANARIA,-12.91149778670668,-38.43920124781619,2024-12-28,14:00:00,Não,Não,,Homicidio/Tentativa,,Pessoa,Morta,,Adulto,Não identificado,Homem cis,Automóvel,Sem identificação,Não identificado,Não se aplica,Não se aplica,Não se aplica,,Não se aplica,Não se aplica,Não se aplica,Civíl
Rio de Janeiro,"Rua Taquarichim - Rocha Miranda, Rio de Janeiro - RJ, Brasil",RIO DE JANEIRO,ROCHA MIRANDA,-22.8400745,-43.3473366,2024-12-28,10:00:00,Sim,Sim,9 BPM,Ação policial,,Pessoa,Morta,,Adulto,Não identificado,Homem cis,Sem identificação,Sem identificação,Não identificado,Não se aplica,Não se aplica,Não se aplica,,Não se aplica,Não se aplica,Não se aplica,Civíl
Pernambuco,"Barra de Jangada, Jaboatão dos Guararapes - PE, Brasil",JABOATAO DOS GUARARAPES,BARRA DE JANGADA,-8.2216764,-34.9451498,2024-12-27,23:00:00,Não,Não,,Homicidio/Tentativa,,Pessoa,Morta,26.0,Adulto,Não identificado,Homem cis,Sem identificação,Sem identificação,PPTE,Não se aplica,Não se aplica,Não se aplica,,Não se aplica,Não se aplica,Não se aplica,Civíl
Pernambuco,"Tv. do Gusmão - São José, Recife - PE, 50020-520, Brasil",RECIFE,SAO JOSE,-8.072523562938786,-34.88644492226963,2024-12-26,00:40:00,Não,Não,,Homicidio/Tentativa,,Pessoa,Morta,19.0,Adulto,Negra,Homem cis,Sem identificação,Sem identificação,PPTE,Não se aplica,Não se aplica,Não se aplica,,Não se aplica,Não se aplica,Não se aplica,Civíl
Pernambuco,"Nossa Senhora de Fatima, Moreno - PE, Brasil",MORENO,"N. SRA. DE FATIMA, N. SRA. DA CONCEICAO",-8.127684799999999,-35.0897383,2024-12-26,00:00:00,Não,Não,,Tentativa/Roubo,,Pessoa,Ferida,18.0,Adulto,Não identificado,Homem cis,Sem identificação,Sem identificação,Não identificado,Não se aplica,Não se aplica,Não se aplica,,Não se aplica,Não se aplica,Não se aplica,Civíl
Bahia,"Av. Beira Mar - Ribeira, Salvador - BA, Brasil",SALVADOR,RIBEIRA,-12.9162839,-38.4994353,2024-12-27,02:00:00,Sim,Sim,PM (RONDESP/BTS),Ação policial,,Pessoa,Morta,,Adulto,Negra,Homem cis,Sem identificação,Sem identificação,Não identificado,Não se aplica,Não se aplica,Não se aplica,,Não se aplica,Não se aplica,Não se aplica,Civíl
Pernambuco,"Centro, Abreu e Lima - PE, Brasil",ABREU E LIMA,CENTRO,-7.907058999999999,-34.9021136,2024-12-26,00:00:00,Não,Não,,Homicidio/Tentativa,,Pessoa,Ferida,33.0,Adulto,Não identificado,Homem cis,Sem identificação,Sem identificação,Não identificado,Não se aplica,Não se aplica,Não se aplica,,Não se aplica,Não se aplica,Não se aplica,Civíl
Rio de Janeiro,"Estrada de Xerém - São Francisco de Assis, Belford Roxo - RJ, 26125-070, Brasil",BELFORD ROXO,SAO FRANCISCO DE ASSIS,-22.73417452576892,-43.39998664953153,2024-12-26,15:00:00,Não,Não,,Homicidio/Tentativa,,Pessoa,Morta,,Adulto,Não identificado,Homem cis,Sem identificação,Sem identificação,Não identificado,Não se aplica,Não se aplica,Não se aplica,,Não se aplica,Não se aplica,Não se aplica,Civíl
Bahia,"R. Joanes Azul - Conjunto Joanes (Alagados) - Península Joanes - Lobato, Salvador - BA, 40471-045, Brasil",SALVADOR,LOBATO,-12.923027851055949,-38.48721307607616,2024-12-26,17:00:00,Sim,Sim,"RONDESP (BTS), RONDESP (SUL), RONDESP (NORDESTE)",Operação policial,,Pessoa,Morta,,Adulto,Não identificado,Homem cis,Sem identificação,Sem identificação,Não identificado,Não se aplica,Não se aplica,Não se aplica,,Não se aplica,Não se aplica,Não se aplica,Civíl
Bahia,"R. Joanes Azul - Conjunto Joanes (Alagados) - Península Joanes - Lobato, Salvador - BA, 40471-045, Brasil",SALVADOR,LOBATO,-12.923027851055949,-38.48721307607616,2024-12-26,17:00:00,Sim,Sim,"RONDESP (BTS), RONDESP (SUL), RONDESP (NORDESTE)",Operação policial,,Pessoa,Morta,,Adulto,Negra,Homem cis,Sem identificação,Sem identificação,Não identificado,Não se aplica,Não se aplica,Não se aplica,,Não se aplica,Não se aplica,Não se aplica,Civíl
Bahia,"Pau Miúdo, Salvador - BA, Brasil",SALVADOR,PAU MIUDO,-12.963664125424147,-38.48120309779922,2024-12-26,16:00:00,Não,Não,,Tentativa/Roubo,,Pessoa,Ferida,27.0,Adulto,Negra,Homem cis,Sem identificação,Sem identificação,Não identificado,Não se aplica,Não se aplica,Não se aplica,,Não se aplica,Não se aplica,Não se aplica,Civíl
Bahia,"Av. Leste - Natal (Bomba), Camaçari - BA, Brasil",CAMACARI,NATAL,-12.694291355140985,-38.31840519412027,2024-12-26,15:00:00,Não,Não,,Homicidio/Tentativa,,Pessoa,Morta,,Adulto,Negra,Homem cis,Automóvel,Sem identificação,Motorista de aplicativo,Em serviço,Não se aplica,Não se aplica,,Não se aplica,Não se aplica,Não se aplica,Civíl
Bahia,"Lajinha - Engomadeira, Salvador - BA, Brasil",SALVADOR,ENGOMADEIRA,-12.949181741839116,-38.45480697862686,2024-12-25,14:00:00,Não,Não,,Disputa,,Pessoa,Ferida,,Adulto,Negra,Mulher cis,Evento,Sem identificação,Não identificado,Não se aplica,Não se aplica,Não se aplica,,Não se aplica,Não se aplica,Não se aplica,Civíl
Bahia,"Lajinha - Engomadeira, Salvador - BA, Brasil",SALVADOR,ENGOMADEIRA,-12.949181741839116,-38.45480697862686,2024-12-25,14:00:00,Não,Não,,Disputa,,Pessoa,Ferida,,Adulto,Não identificado,Não identificado,Evento,Sem identificação,Não identificado,Não se aplica,Não se aplica,Não se aplica,,Não se aplica,Não se aplica,Não se aplica,Civíl
Bahia,"Lajinha - Engomadeira, Salvador - BA, Brasil",SALVADOR,ENGOMADEIRA,-12.949181741839116,-38.45480697862686,2024-12-25,14:00:00,Não,Não,,Disputa,,Pessoa,Ferida,,Adulto,Não identificado,Mulher cis,Evento,Sem identificação,Não identificado,Não se aplica,Não se aplica,Não se aplica,,Não se aplica,Não se aplica,Não se aplica,Civíl
Bahia,"Lajinha - Engomadeira, Salvador - BA, Brasil",SALVADOR,ENGOMADEIRA,-12.949181741839116,-38.45480697862686,2024-12-25,14:00:00,Não,Não,,Disputa,,Pessoa,Ferida,,Adulto,Não identificado,Não identificado,Evento,Sem identificação,Não identificado,Não se aplica,Não se aplica,Não se aplica,,Não se aplica,Não se aplica,Não se aplica,Civíl
Pernambuco,"Comunidade Roda de Fogo - R. Três de Setembro - Torrões, Recife - PE, 50660-260, Brasil",RECIFE,TORROES,-8.0601776,-34.9391595,2024-12-25,00:00:00,Não,Não,,Homicidio/Tentativa,,Pessoa,Ferida,27.0,Adulto,Não identificado,Homem cis,Sem identificação,Sem identificação,Não identificado,Não se aplica,Não se aplica,Não se aplica,,Não se aplica,Não se aplica,Não se aplica,Civíl
Pernambuco,"Comunidade Roda de Fogo - R. Três de Setembro - Torrões, Recife - PE, 50660-260, Brasil",RECIFE,TORROES,-8.0601776,-34.9391595,2024-12-25,00:00:00,Não,Não,,Homicidio/Tentativa,,Pessoa,Morta,57.0,Adulto,Não identificado,Mulher cis,Sem identificação,Sem identificação,Não identificado,Não se aplica,Não se aplica,Não se aplica,,Não se aplica,Não se aplica,Não se aplica,Civíl
Bahia,"R. 7 de Setembro - Águas Claras, Salvador - BA",SALVADOR,AGUAS CLARAS,-12.88289557061634,-38.41945222883634,2024-12-25,23:00:00,Não,Não,,Homicidio/Tentativa,,Pessoa,Ferida,42.0,Adulto,Negra,Homem cis,Sem identificação,Sem identificação,Outros,De folga,Não se aplica,Não se aplica,,Não se aplica,Não se aplica,Não se aplica,Civíl
Bahia,"IAPI, Salvador - BA",SALVADOR,IAPI,-12.95597968789758,-38.4791681319678,2024-12-25,22:50:00,Não,Não,,Homicidio/Tentativa,,Pessoa,Ferida,,Adulto,Não identificado,Homem cis,Sem identificação,Sem identificação,Não identificado,Não se aplica,Não se aplica,Não se aplica,,Não se aplica,Não se aplica,Não se aplica,Civíl
Bahia,"Pau Miúdo, Salvador - BA",SALVADOR,PAU MIUDO,-12.962666677416918,-38.48207836857255,2024-12-25,21:35:00,Não,Não,,Homicidio/Tentativa,,Pessoa,Ferida,23.0,Adulto,Não identificado,Homem cis,Sem identificação,Sem identificação,Não identificado,Não se aplica,Não se aplica,Não se aplica,,Não se aplica,Não se aplica,Não se aplica,Civíl
Rio de Janeiro,"Pontilhão - Caju, Rio de Janeiro - RJ, Brasil",RIO DE JANEIRO,CAJU,-22.8807991,-43.2278482,2024-12-25,11:37:00,Sim,Sim,4 BPM,Ação policial,,Pessoa,Ferida,,Adulto,Não identificado,Homem cis,Sem identificação,Sem identificação,Não identificado,Não se aplica,Não se aplica,Não se aplica,,Não se aplica,Não se aplica,Não se aplica,Civíl
Pernambuco,"Carne de vaca - Ponta de Pedras, Goiana - PE, Brasil",GOIANA,PONTA DE PEDRAS,-7.572293999999999,-34.8330592,2024-12-20,00:00:00,Não,Não,,Homicidio/Tentativa,,Pessoa,Morta,47.0,Adulto,Não identificado,Homem cis,Sem identificação,Sem identificação,Não identificado,Não se aplica,Não se aplica,Não se aplica,,Não se aplica,Não se aplica,Não se aplica,Civíl
Pernambuco,"Mercado Público de Cavaleiro - Cavaleiro, Jaboatão dos Guararapes - PE, 54250-000, Brasil",JABOATAO DOS GUARARAPES,CAVALEIRO,-8.091943719542614,-34.97269569372543,2024-12-24,00:00:00,Não,Não,,Homicidio/Tentativa,,Pessoa,Morta,,Adulto,Negra,Homem cis,Outros,Sem identificação,Não identificado,Não se aplica,Não se aplica,Não se aplica,,Não se aplica,Não se aplica,Não se aplica,Civíl
Pernambuco,"R. Rio Guaíba - Água Fria, Recife - PE, 52211-560, Brasil",RECIFE,AGUA FRIA,-8.010945158726976,-34.89655788172857,2024-12-24,00:00:00,Não,Não,,Homicidio/Tentativa,,Pessoa,Morta,40.0,Adulto,Negra,Homem cis,Barbearia,Sem identificação,PPTE,Não se aplica,Não se aplica,Não se aplica,,Não se aplica,Não se aplica,Não se aplica,Civíl
Rio de Janeiro,"Rodovia Washington Luiz - Chácaras Rio-Petrópolis, Duque de Caxias - RJ, Brasil",DUQUE DE CAXIAS,CHACARAS RIO PETROPOLIS,-22.6415736,-43.2836955,2024-12-24,23:00:00,Sim,Sim,PRF,Ação policial,,Pessoa,Ferida,26.0,Adulto,Branca,Mulher cis,Automóvel,Sem identificação,Não identificado,Não se aplica,Não se aplica,Não se aplica,,Não se aplica,Não se aplica,Não se aplica,Civíl
Rio de Janeiro,"Rodovia Washington Luiz - Chácaras Rio-Petrópolis, Duque de Caxias - RJ, Brasil",DUQUE DE CAXIAS,CHACARAS RIO PETROPOLIS,-22.6415736,-43.2836955,2024-12-24,23:00:00,Sim,Sim,PRF,Ação policial,,Pessoa,Ferida,53.0,Adulto,Não identificado,Homem cis,Automóvel,Sem identificação,Não identificado,Não se aplica,Não se aplica,Não se aplica,,Não se aplica,Não se aplica,Não se aplica,Civíl
Rio de Janeiro,"Pontilhão - Jacarezinho, Rio de Janeiro - RJ, 20785-180, Brasil",RIO DE JANEIRO,JACAREZINHO,-22.8864899,-43.25422,2024-12-25,07:52:00,Sim,Sim,04 BPM,Ação policial,,Pessoa,Ferida,,Adulto,Não identificado,Homem cis,Sem identificação,Sem identificação,Não identificado,Não se aplica,Não se aplica,Não se aplica,,Não se aplica,Não se aplica,Não se aplica,Civíl
Rio de Janeiro,"Catiri - Bangu, Rio de Janeiro - RJ, 21863-010, Brasil",RIO DE JANEIRO,BANGU,-22.85319795,-43.47059105,2024-12-23,12:00:00,Não,Não,,Disputa,Ataques armados sobre rodas,Pessoa,Ferida,,Adulto,Não identificado,Mulher cis,Outros,Sem identificação,Não identificado,Não se aplica,Não se aplica,Não se aplica,,Não se aplica,Não se aplica,Não se aplica,Civíl
Rio de Janeiro,"Catiri - Bangu, Rio de Janeiro - RJ, 21863-010, Brasil",RIO DE JANEIRO,BANGU,-22.85319795,-43.47059105,2024-12-23,12:00:00,Não,Não,,Disputa,Ataques armados sobre rodas,Pessoa,Ferida,32.0,Adulto,Não identificado,Homem cis,Outros,Sem identificação,Outros,Em serviço,Não se aplica,Não se aplica,,Não se aplica,Não se aplica,Não se aplica,Civíl
Rio de Janeiro,"Rua Luís Mota - Amendoeira, São Gonçalo - RJ, Brasil",SÃO GONÇALO,AMENDOEIRA,-22.825318,-42.9893914,2024-12-24,08:20:00,Não,Não,,Tentativa/Roubo,,Pessoa,Morta,28.0,Adulto,Negra,Mulher cis,Sem identificação,Sem identificação,Não identificado,Não se aplica,Não se aplica,Não se aplica,,Não se aplica,Não se aplica,Não se aplica,Civíl
Rio de Janeiro,"Rua Luís Mota - Amendoeira, São Gonçalo - RJ, Brasil",SÃO GONÇALO,AMENDOEIRA,-22.825318,-42.9893914,2024-12-24,08:20:00,Não,Não,,Tentativa/Roubo,,Pessoa,Ferida,29.0,Adulto,Não identificado,Homem cis,Sem identificação,Sem identificação,Não identificado,Não se aplica,Não se aplica,Não se aplica,,Não se aplica,Não se aplica,Não se aplica,Civíl
Pernambuco,"Alto do Sol - R. da Saudade - Pte. dos Carvalhos, Cabo de Santo Agostinho - PE, 54580-730, Brasil",CABO DE SANTO AGOSTINHO,PONTE DOS CARVALHOS,-8.236901892089096,-34.98431488415256,2024-12-24,00:00:00,Não,Não,,Homicidio/Tentativa,,Pessoa,Morta,20.0,Adulto,Negra,Homem cis,Sem identificação,Sem identificação,Não identificado,Não se aplica,Não se aplica,Não se aplica,,Não se aplica,Não se aplica,Não se aplica,Civíl
Pernambuco,"Jardim Brasil V - R. Maria do Socorro - Aguazinha, Olinda - PE, 53270-110, Brasil",OLINDA,AGUAZINHA,-7.996871309585223,-34.88171258976834,2024-12-23,00:00:00,Não,Não,,Homicidio/Tentativa,,Pessoa,Morta,,Adulto,Negra,Homem cis,Sem identificação,Sem identificação,Não identificado,Não se aplica,Não se aplica,Não se aplica,,Não se aplica,Não se aplica,Não se aplica,Civíl
Pernambuco,"Jardim Brasil V - R. Maria do Socorro - Aguazinha, Olinda - PE, 53270-110, Brasil",OLINDA,AGUAZINHA,-7.996871309585223,-34.88171258976834,2024-12-23,00:00:00,Não,Não,,Homicidio/Tentativa,,Pessoa,Morta,16.0,Adolescente,Negra,Homem cis,Sem identificação,Sem identificação,Não identificado,Não se aplica,Não se aplica,Não se aplica,,Não se aplica,Não se aplica,Não se aplica,Civíl
Pernambuco,"Rua Nove, Barra de Jangada - Jaboatão dos Guararapes, PE, Brasil",JABOATAO DOS GUARARAPES,BARRA DE JANGADA,-8.232517291847392,-34.9365186350497,2024-12-23,00:00:00,Não,Não,,Homicidio/Tentativa,,Pessoa,Morta,56.0,Adulto,Não identificado,Homem cis,Sem identificação,Sem identificação,Outros,Não identificado,Não se aplica,Não se aplica,,Não se aplica,Não se aplica,Não se aplica,Civíl
Pernambuco,"Usina Maravilhas, Usina Nossa Senhora das Maravilhas - Goiana, PE, Brasil",GOIANA,GOIANA,-7.533640367866064,-34.99436499494953,2024-12-23,00:00:00,Não,Não,,Briga,Bar,Pessoa,Morta,47.0,Adulto,Não identificado,Homem cis,Bar,Sem identificação,Não identificado,Não se aplica,Não se aplica,Não se aplica,,Não se aplica,Não se aplica,Não se aplica,Civíl
Rio de Janeiro,"Rua Abrahão Jabour - Jacarepaguá, Rio de Janeiro - RJ, Brasil",RIO DE JANEIRO,FREGUESIA (JACAREPAGUA),-22.9739535,-43.4113532,2024-12-24,07:00:00,Sim,Sim,31 BPM ,Ação policial,,Pessoa,Morta,,Adulto,Não identificado,Homem cis,Sem identificação,Sem identificação,Não identificado,Não se aplica,Não se aplica,Não se aplica,,Não se aplica,Não se aplica,Não se aplica,Civíl
Pernambuco,"Av. Dr. José Rufino - Barro, Recife - PE, 50865-000, Brasil",RECIFE,BARRO,-8.092683491759761,-34.94658370732197,2024-12-23,00:00:00,Não,Não,,Homicidio/Tentativa,,Pessoa,Morta,15.0,Adolescente,Não identificado,Homem cis,Sem identificação,Sem identificação,Não identificado,Não se aplica,Não se aplica,Não se aplica,,Não se aplica,Não se aplica,Não se aplica,Civíl
Pernambuco,"Vila da Prata - R. Delfim - Brasília Teimosa, Recife - PE, 51010-010, Brasil",RECIFE,BRASILIA TEIMOSA,-8.081693929233294,-34.88043617601673,2024-12-23,00:00:00,Não,Não,,Homicidio/Tentativa,,Pessoa,Morta,28.0,Adulto,Negra,Homem cis,Sem identificação,Sem identificação,Não identificado,Não se aplica,Não se aplica,Não se aplica,,Não se aplica,Não se aplica,Não se aplica,Civíl
Bahia,"R. Gonçalo Coelho - Liberdade, Salvador - BA",SALVADOR,LIBERDADE,-12.95044028664948,-38.49310147738045,2024-12-23,16:40:00,Não,Não,,Ataque a civis,,Pessoa,Ferida,51.0,Adulto,Não identificado,Mulher cis,Sem identificação,Sem identificação,Não identificado,Não se aplica,Não se aplica,Não se aplica,,Não se aplica,Não se aplica,Não se aplica,Civíl
Bahia,"R. Gonçalo Coelho - Liberdade, Salvador - BA",SALVADOR,LIBERDADE,-12.95044028664948,-38.49310147738045,2024-12-23,16:40:00,Não,Não,,Ataque a civis,,Pessoa,Ferida,,Adulto,Não identificado,Homem cis,Sem identificação,Sem identificação,Não identificado,Não se aplica,Não se aplica,Não se aplica,,Não se aplica,Não se aplica,Não se aplica,Civíl
Bahia,"R. Gonçalo Coelho - Liberdade, Salvador - BA",SALVADOR,LIBERDADE,-12.95044028664948,-38.49310147738045,2024-12-23,16:40:00,Não,Não,,Ataque a civis,,Pessoa,Ferida,,Adulto,Não identificado,Homem cis,Sem identificação,Sem identificação,Não identificado,Não se aplica,Não se aplica,Não se aplica,,Não se aplica,Não se aplica,Não se aplica,Civíl
Bahia,"Pará - São Sebastião do Passé, BA, Brasil",SAO SEBASTIAO DO PASSE,NI,-12.5074434250495,-38.4842049674584,2024-12-22,15:00:00,Sim,Sim,10ª CIPM,Ação policial,,Pessoa,Ferida,,Adulto,Não identificado,Homem cis,Sem identificação,Sem identificação,Não identificado,Não se aplica,Não se aplica,Não se aplica,,Não se aplica,Não se aplica,Não se aplica,Civíl
Bahia,"Phoc II, Camaçari - BA",CAMACARI,RENASCER - PHOC II,-12.70882533716916,-38.33265546373995,2024-12-23,02:00:00,Não,Não,,Homicidio/Tentativa,,Pessoa,Ferida,,Adulto,Não identificado,Não identificado,Sem identificação,Sem identificação,Não identificado,Não se aplica,Não se aplica,Não se aplica,,Não se aplica,Não se aplica,Não se aplica,Civíl
Bahia,"Phoc II, Camaçari - BA",CAMACARI,RENASCER - PHOC II,-12.70882533716916,-38.33265546373995,2024-12-23,02:00:00,Não,Não,,Homicidio/Tentativa,,Pessoa,Ferida,,Adulto,Não identificado,Não identificado,Sem identificação,Sem identificação,Não identificado,Não se aplica,Não se aplica,Não se aplica,,Não se aplica,Não se aplica,Não se aplica,Civíl
Pernambuco,"Rio Capibaribe - R. Tapacurá - Monteiro, Recife - PE, 52061-142, Brasil",RECIFE,MONTEIRO,-8.029905199647581,-34.92842476423167,2024-12-22,10:00:00,Não,Não,,Homicidio/Tentativa,,Pessoa,Morta,,Adulto,Negra,Homem cis,Outros,Encontro de cadáver,Não identificado,Não se aplica,Não se aplica,Não se aplica,,Não se aplica,Não se aplica,Não se aplica,Civíl
Pernambuco,"R. Souto Maior Júnior - Muribara, São Lourenço da Mata - PE, 54720-460, Brasil",SAO LOURENCO DA MATA,MURIBARA,-8.00449514253255,-35.045343857513295,2024-12-23,00:00:00,Não,Não,,Homicidio/Tentativa,,Pessoa,Morta,20.0,Adulto,Negra,Homem cis,Sem identificação,Sem identificação,Não identificado,Não se aplica,Não se aplica,Não se aplica,,Não se aplica,Não se aplica,Não se aplica,Civíl
Bahia,"R. Laurindo Rabello - Liberdade, Salvador - BA, Brasil",SALVADOR,LIBERDADE,-12.946766080041364,-38.49252132947656,2024-12-23,13:00:00,Não,Não,,Homicidio/Tentativa,,Pessoa,Morta,17.0,Adolescente,Não identificado,Homem cis,Sem identificação,Sem identificação,Não identificado,Não se aplica,Não se aplica,Não se aplica,,Não se aplica,Não se aplica,Não se aplica,Civíl
Bahia,"R. Laurindo Rabello - Liberdade, Salvador - BA, Brasil",SALVADOR,LIBERDADE,-12.946766080041364,-38.49252132947656,2024-12-23,13:00:00,Não,Não,,Homicidio/Tentativa,,Pessoa,Morta,,Adulto,Não identificado,Homem cis,Sem identificação,Sem identificação,Não identificado,Não se aplica,Não se aplica,Não se aplica,,Não se aplica,Não se aplica,Não se aplica,Civíl
Pernambuco,"Comunidade Nova Divinéia - R. Dez - Cajueiro Seco, Jaboatão dos Guararapes - PE, 54330-465, Brasil",JABOATAO DOS GUARARAPES,CAJUEIRO SECO,-8.171450733553282,-34.92651343445538,2024-12-22,00:00:00,Não,Não,,Homicidio/Tentativa,,Pessoa,Morta,21.0,Adulto,Negra,Homem cis,Sem identificação,Sem identificação,Não identificado,Não se aplica,Não se aplica,Não se aplica,,Não se aplica,Não se aplica,Não se aplica,Civíl
Rio de Janeiro,"Avenida Brasil, Fazenda Botafogo, Coelho Neto, Rio de Janeiro - RJ, 21530-170, Brasil",RIO DE JANEIRO,COELHO NETO,-22.829796193138986,-43.3483118341156,2024-12-22,00:30:00,Não,Não,,Tentativa/Roubo,,Pessoa,Morta,27.0,Adulto,Negra,Homem cis,Sem identificação,Sem identificação,Entregador / Motoboy,Em serviço,Não se aplica,Não se aplica,,Não se aplica,Não se aplica,Não se aplica,Civíl
Pernambuco,"Vila da Fabrica, Camaragibe - PE, Brasil",CAMARAGIBE,VILA DA FABRICA,-8.0087824,-34.9785043,2024-12-23,00:00:00,Sim,Sim,Polícia militar,Ação policial,,Pessoa,Morta,,Adulto,Não identificado,Homem cis,Sem identificação,Sem identificação,Não identificado,Não se aplica,Não se aplica,Não se aplica,,Não se aplica,Não se aplica,Não se aplica,Civíl
Pernambuco,"Av. Eraldo Barros de Souza - Cohab, Cabo de Santo Agostinho - PE, 54520-070, Brasil",CABO DE SANTO AGOSTINHO,COHAB,-8.2956761,-35.0292603,2024-12-21,00:00:00,Não,Não,,Homicidio/Tentativa,,Pessoa,Morta,49.0,Adulto,Negra,Homem cis,Sem identificação,Sem identificação,Mototaxista ,Em serviço,Não se aplica,Não se aplica,,Não se aplica,Não se aplica,Não se aplica,Civíl
Pernambuco,"Estr. Engenho Noruega - Juçaral, Cabo de Santo Agostinho - PE, Brasil",CABO DE SANTO AGOSTINHO,JUCARAL,-8.291573114367255,-35.22498779728122,2024-12-22,00:00:00,Não,Não,,Homicidio/Tentativa,,Pessoa,Morta,,Adulto,Não identificado,Homem cis,Outros,Encontro de cadáver,Não identificado,Não se aplica,Não se aplica,Não se aplica,,Não se aplica,Não se aplica,Não se aplica,Civíl
Pernambuco,"BR-101 - Ipojuca, PE, 55590-000, Brasil",IPOJUCA,NI,-8.337273251429853,-35.14125836114324,2024-12-22,00:00:00,Não,Não,,Homicidio/Tentativa,,Pessoa,Morta,,Adulto,Não identificado,Homem cis,Sem identificação,Encontro de cadáver,Não identificado,Não se aplica,Não se aplica,Não se aplica,,Não se aplica,Não se aplica,Não se aplica,Civíl
Pernambuco,"Vila Claudete - Garapu, Cabo de Santo Agostinho - PE, 54527-710, Brasil",CABO DE SANTO AGOSTINHO,GARAPU,-8.2888542,-35.0205519,2024-12-22,00:00:00,Não,Não,,Homicidio/Tentativa,,Pessoa,Morta,25.0,Adulto,Negra,Homem cis,Sem identificação,Sem identificação,Não identificado,Não se aplica,Não se aplica,Não se aplica,,Não se aplica,Não se aplica,Não se aplica,Civíl
Pernambuco,"Av Dr Francisco Correia - Centro, São Lourenço da Mata - PE, 54737-200, Brasil",SAO LOURENCO DA MATA,CENTRO,-7.994963845496601,-35.042303571746345,2024-12-22,00:00:00,Não,Não,,Homicidio/Tentativa,,Pessoa,Morta,27.0,Adulto,Não identificado,Homem cis,Sem identificação,Sem identificação,Não identificado,Não se aplica,Não se aplica,Não se aplica,,Não se aplica,Não se aplica,Não se aplica,Civíl
Pernambuco,"Rua Cajazeiras - Jaguaribe, Ilha de Itamaracá - PE, Brasil",ILHA DE ITAMARACA,JAGUARIBE,-7.7435584,-34.8312077,2024-12-22,00:00:00,Não,Não,,Homicidio/Tentativa,,Pessoa,Morta,27.0,Adulto,Negra,Homem cis,Sem identificação,Sem identificação,Não identificado,Não se aplica,Não se aplica,Não se aplica,,Não se aplica,Não se aplica,Não se aplica,Civíl
Pernambuco,"Praia do Pina - Av. Boa Viagem - Pina, Recife - PE, 51110-000, Brasil",RECIFE,PINA,-8.090797576397105,-34.881328328862395,2024-12-22,00:00:00,Não,Não,,Homicidio/Tentativa,,Pessoa,Morta,18.0,Adulto,Negra,Homem cis,Outros,Sem identificação,Não identificado,Não se aplica,Não se aplica,Não se aplica,,Não se aplica,Não se aplica,Não se aplica,Civíl
Pernambuco,"Desterro, Abreu e Lima - PE, Brasil",ABREU E LIMA,DESTERRO,-7.891066099999999,-34.9076516,2024-12-22,00:00:00,Sim,Sim,BOPE,Ação policial,,Pessoa,Ferida,35.0,Adulto,Não identificado,Homem cis,Sem identificação,Sem identificação,Agente de segurança,Não se aplica,Não se aplica,Não se aplica,,Não identificado,Polícia Militar,Em serviço,Agente
Pernambuco,"Desterro, Abreu e Lima - PE, Brasil",ABREU E LIMA,DESTERRO,-7.891066099999999,-34.9076516,2024-12-22,00:00:00,Sim,Sim,BOPE,Ação policial,,Pessoa,Morta,,Adulto,Não identificado,Homem cis,Sem identificação,Sem identificação,Não identificado,Não se aplica,Não se aplica,Não se aplica,,Não se aplica,Não se aplica,Não se aplica,Civíl
Bahia,"Av. Batatinha, Rocinha - Mata Escura, Salvador - BA, Brasil",SALVADOR,MATA ESCURA,-12.939668969342923,-38.469765800907865,2024-12-22,11:00:00,Não,Não,,Disputa,,Pessoa,Morta,,Adulto,Não identificado,Homem cis,Sem identificação,Sem identificação,Não identificado,Não se aplica,Não se aplica,Não se aplica,,Não se aplica,Não se aplica,Não se aplica,Civíl
Rio de Janeiro,"Jockey, São Gonçalo - RJ, Brasil",SÃO GONÇALO,JOCKEY,-22.8467882,-42.9983438,2024-12-21,22:00:00,Não,Não,,Não identificado,,Pessoa,Morta,16.0,Adolescente,Não identificado,Homem cis,Sem identificação,Sem identificação,Não identificado,Não se aplica,Não se aplica,Não se aplica,,Não se aplica,Não se aplica,Não se aplica,Civíl
Bahia,"R. Direta do Capelão - Capelão, Lauro de Freitas - BA, Brasil",LAURO DE FREITAS,CAPELAO,-12.861249432773384,-38.35370462760516,2024-12-21,22:00:00,Não,Não,,Tortura,,Pessoa,Morta,25.0,Adulto,Não identificado,Homem cis,Residência,Sem identificação,Não identificado,Não se aplica,Não se aplica,Não se aplica,,Não se aplica,Não se aplica,Não se aplica,Civíl
Bahia,"Bar Preto - Rua Guillard Muniz - Pituba, Salvador - BA, Brasil",SALVADOR,PITUBA,-12.99146757064958,-38.46070501374868,2024-12-22,03:00:00,Não,Não,,Briga,Bar,Pessoa,Ferida,24.0,Adulto,Não identificado,Homem cis,Bar,Sem identificação,Outros,Em serviço,Não se aplica,Não se aplica,,Não se aplica,Não se aplica,Não se aplica,Civíl
Bahia," Narandiba, Salvador - BA, Brasil",SALVADOR,NARANDIBA,-12.955071731712328,-38.44908448135157,2024-12-21,21:00:00,Não,Não,,Homicidio/Tentativa,,Pessoa,Morta,,Adulto,Não identificado,Homem cis,Sem identificação,Sem identificação,Não identificado,Não se aplica,Não se aplica,Não se aplica,,Não se aplica,Não se aplica,Não se aplica,Civíl
Bahia,"Tv. Jaguarari, Baixa do Tubo/Vale do Matatu- Cosme de Farias, Salvador - BA,  Brasil",SALVADOR,COSME DE FARIAS,-12.977718139393373,-38.48898223560356,2024-12-22,03:00:00,Sim,Sim,RONDESP ATLÂNTICO,Ação policial,,Pessoa,Morta,,Adulto,Não identificado,Homem cis,Sem identificação,Sem identificação,Não identificado,Não se aplica,Não se aplica,Não se aplica,,Não se aplica,Não se aplica,Não se aplica,Civíl
Rio de Janeiro,"Avenida Camões - Penha Circular, Rio de Janeiro - RJ, Brasil",RIO DE JANEIRO,PENHA CIRCULAR,-22.8289788,-43.2816822,2024-12-21,18:00:00,Não,Não,,Homicidio/Tentativa,,Pessoa,Morta,,Adulto,Não identificado,Homem cis,Sem identificação,Encontro de cadáver,Não identificado,Não se aplica,Não se aplica,Não se aplica,,Não se aplica,Não se aplica,Não se aplica,Civíl
Rio de Janeiro,"Avenida Camões - Penha Circular, Rio de Janeiro - RJ, Brasil",RIO DE JANEIRO,PENHA CIRCULAR,-22.8289788,-43.2816822,2024-12-21,18:00:00,Não,Não,,Homicidio/Tentativa,,Pessoa,Morta,,Adulto,Não identificado,Homem cis,Sem identificação,Encontro de cadáver,Não identificado,Não se aplica,Não se aplica,Não se aplica,,Não se aplica,Não se aplica,Não se aplica,Civíl
Rio de Janeiro,"Morro dos Macacos - Vila Isabel, Rio de Janeiro - RJ, 20551-232, Brasil",RIO DE JANEIRO,VILA ISABEL,-22.91225319547,-43.2503331375122,2024-12-21,13:00:00,Não,Não,,Homicidio/Tentativa,,Pessoa,Morta,,Adulto,Não identificado,Homem cis,Sem identificação,Sem identificação,Não identificado,Não se aplica,Não se aplica,Não se aplica,,Não se aplica,Não se aplica,Não se aplica,Civíl
Rio de Janeiro,"Estrada da Matriz - Guaratiba, Rio de Janeiro - RJ, Brasil",RIO DE JANEIRO,GUARATIBA,-22.9938213,-43.6039727,2024-12-20,22:00:00,Não,Não,,Homicidio/Tentativa,Ataques armados sobre rodas,Pessoa,Morta,45.0,Adulto,Não identificado,Homem cis,Sem identificação,Sem identificação,Outros,Não identificado,Não se aplica,Não se aplica,,Não se aplica,Não se aplica,Não se aplica,Civíl
Bahia,"Batalhão da Polícia de Choque, Recreio do Ipitanga - Lauro de Freitas - BA",LAURO DE FREITAS,RECREIO IPITANGA,-12.88766126190234,-38.32875974536681,2024-12-21,08:00:00,Sim,Não,,Disparo Acidental,,Pessoa,Ferida,,Adulto,Não identificado,Homem cis,Sem identificação,Sem identificação,Agente de segurança,Não se aplica,Não se aplica,Não se aplica,,Capitão,Polícia Militar,Em serviço,Agente
Pernambuco,"R. Rio Tapajós - Boa Esperança, Abreu e Lima - PE, 53580-310, Brasil",ABREU E LIMA,FOSFATO,-7.897113616167587,-34.89412331324527,2024-12-17,00:00:00,Não,Não,,Homicidio/Tentativa,,Pessoa,Morta,23.0,Adulto,Não identificado,Homem cis,Sem identificação,Sem identificação,Não identificado,Não se aplica,Não se aplica,Não se aplica,,Não se aplica,Não se aplica,Não se aplica,Civíl
Pernambuco,"Loteamento Bonfim I - Cruz de Rebouças, Igarassu - PE, 53637-130, Brasil",IGARASSU,BONFIM,-7.876658539009147,-34.91411039387645,2024-12-20,00:00:00,Não,Não,,Homicidio/Tentativa,,Pessoa,Morta,23.0,Adulto,Negra,Homem cis,Sem identificação,Sem identificação,Não identificado,Não se aplica,Não se aplica,Não se aplica,,Não se aplica,Não se aplica,Não se aplica,Civíl
Rio de Janeiro,"Rua Soldado José Menezes Filho - Anil, Rio de Janeiro - RJ, Brasil",RIO DE JANEIRO,ANIL,-22.9556307,-43.3422066,2024-12-20,18:00:00,Não,Não,,Não identificado,,Pessoa,Morta,35.0,Adulto,Não identificado,Homem cis,Sem identificação,Sem identificação,Não identificado,Não se aplica,Não se aplica,Não se aplica,,Não se aplica,Não se aplica,Não se aplica,Civíl
Rio de Janeiro,"Avenida Canal do Anil - Anil, Rio de Janeiro - RJ, Brasil",RIO DE JANEIRO,ANIL,-22.962846,-43.34533,2024-12-20,07:00:00,Não,Não,,Não identificado,,Pessoa,Morta,25.0,Adulto,Não identificado,Homem cis,Outros,Sem identificação,Não identificado,Não se aplica,Não se aplica,Não se aplica,,Não se aplica,Não se aplica,Não se aplica,Civíl
Bahia,"R. da Flecha - Phoc III, Camaçari - BA",CAMACARI,TANCREDO NEVES - PHOC III,-12.7196123548021,-38.33541047553494,2024-12-20,20:00:00,Não,Não,,Homicidio/Tentativa,,Pessoa,Morta,,Adulto,Não identificado,Homem cis,Sem identificação,Sem identificação,Outros,De folga,Não se aplica,Não se aplica,,Não se aplica,Não se aplica,Não se aplica,Civíl
Pernambuco,"Mirueira, Paulista - PE, Brasil",PAULISTA,MIRUEIRA,-7.9667974,-34.89083220000001,2024-12-20,00:00:00,Não,Não,,Homicidio/Tentativa,,Pessoa,Morta,,Adulto,Não identificado,Homem cis,Sem identificação,Sem identificação,Não identificado,Não se aplica,Não se aplica,Não se aplica,,Não se aplica,Não se aplica,Não se aplica,Civíl
Rio de Janeiro,"Cidade Jardim Parque Estoril, Nova Iguaçu - RJ, Brasil",NOVA IGUAÇU,TINGUA,-22.6290076,-43.4211227,2024-12-19,16:30:00,Não,Não,,Homicidio/Tentativa,,Pessoa,Morta,,Adulto,Não identificado,Mulher cis,Sem identificação,Sem identificação,Não identificado,Não se aplica,Não se aplica,Não se aplica,,Não se aplica,Não se aplica,Não se aplica,Civíl
Rio de Janeiro,"Prados Verdes, Nova Iguaçu - RJ, Brasil",NOVA IGUAÇU,PRADOS VERDES,-22.8322013,-43.6156746,2024-12-20,20:00:00,Não,Não,,Homicidio/Tentativa,,Pessoa,Morta,,Adulto,Não identificado,Homem cis,Sem identificação,Sem identificação,Não identificado,Não se aplica,Não se aplica,Não se aplica,,Não se aplica,Não se aplica,Não se aplica,Civíl
Rio de Janeiro,"Jardim Catarina, São Gonçalo - RJ, Brasil",SÃO GONÇALO,JARDIM CATARINA,-22.7921966,-42.9998964,2024-12-20,15:00:00,Não,Não,,Outro,,Pessoa,Ferida,68.0,Idoso,Não identificado,Homem cis,Automóvel,Sem identificação,Não identificado,Não se aplica,Não se aplica,Não se aplica,,Não se aplica,Não se aplica,Não se aplica,Civíl
Rio de Janeiro,"Morro dos Macacos - Vila Isabel, Rio de Janeiro - RJ, 20551-195, Brasil",RIO DE JANEIRO,VILA ISABEL,-22.91318913627668,-43.2539368196045,2024-12-20,22:45:00,Não,Não,,Disputa,,Pessoa,Ferida,,Adulto,Não identificado,Homem cis,Sem identificação,Sem identificação,Não identificado,Não se aplica,Não se aplica,Não se aplica,,Não se aplica,Não se aplica,Não se aplica,Civíl
Bahia,"R. 23 de Janeiro - Barro - Pernambués, Salvador - BA, 41120-150, Brasil",SALVADOR,PERNAMBUES,-12.973646388679771,-38.45276219189751,2024-12-20,18:00:00,Não,Não,,Homicidio/Tentativa,,Pessoa,Morta,,Adulto,Não identificado,Homem cis,Sem identificação,Sem identificação,Não identificado,Não se aplica,Não se aplica,Não se aplica,,Não se aplica,Não se aplica,Não se aplica,Civíl
Bahia,"Santa Maria, Camaçari - BA, Brasil",CAMACARI,SANTA MARIA,-12.71828842338723,-38.34063748841389,2024-12-20,15:00:00,Sim,Sim,12º BPM,Ação policial,,Pessoa,Morta,,Adulto,Não identificado,Homem cis,Sem identificação,Chacina,Não identificado,Não se aplica,Não se aplica,Não se aplica,,Não se aplica,Não se aplica,Não se aplica,Civíl
Bahia,"Santa Maria, Camaçari - BA, Brasil",CAMACARI,SANTA MARIA,-12.71828842338723,-38.34063748841389,2024-12-20,15:00:00,Sim,Sim,12º BPM,Ação policial,,Pessoa,Morta,,Adulto,Não identificado,Homem cis,Sem identificação,Chacina,Não identificado,Não se aplica,Não se aplica,Não se aplica,,Não se aplica,Não se aplica,Não se aplica,Civíl
Bahia,"Santa Maria, Camaçari - BA, Brasil",CAMACARI,SANTA MARIA,-12.71828842338723,-38.34063748841389,2024-12-20,15:00:00,Sim,Sim,12º BPM,Ação policial,,Pessoa,Morta,,Adulto,Não identificado,Homem cis,Sem identificação,Chacina,Não identificado,Não se aplica,Não se aplica,Não se aplica,,Não se aplica,Não se aplica,Não se aplica,Civíl
Pernambuco,"Comunidade do Bode - Av. Encanta Moça - Pina, Recife - PE, 51011-080, Brasil",RECIFE,PINA,-8.093272911990638,-34.88674509229216,2024-12-20,00:00:00,Não,Não,,Homicidio/Tentativa,,Pessoa,Morta,22.0,Adulto,Negra,Homem cis,Sem identificação,Sem identificação,Não identificado,Não se aplica,Não se aplica,Não se aplica,,Não se aplica,Não se aplica,Não se aplica,Civíl
Pernambuco,"PE-15, Jardim Fragoso - Fragoso, Olinda - PE, Brasil",OLINDA,FRAGOSO,-7.983534125251112,-34.85554644129899,2024-12-20,00:00:00,Não,Não,,Homicidio/Tentativa,,Pessoa,Morta,39.0,Adulto,Negra,Homem cis,Sem identificação,Sem identificação,PPTE,Não se aplica,Não se aplica,Não se aplica,,Não se aplica,Não se aplica,Não se aplica,Civíl
Rio de Janeiro,"Doutor Laureano, Duque de Caxias - RJ, Brasil",DUQUE DE CAXIAS,DR. LAUREANO,-22.7680298,-43.2980711,2024-12-19,20:28:00,Não,Não,,Homicidio/Tentativa,,Pessoa,Morta,,Adulto,Não identificado,Homem cis,Sem identificação,Sem identificação,Não identificado,Não se aplica,Não se aplica,Não se aplica,,Não se aplica,Não se aplica,Não se aplica,Civíl
Bahia,"Passeio Público - Campo Grand,e, Centro, Salvador - BA, Brasil",SALVADOR,CENTRO,-12.9853954,-38.5209739,2024-12-20,07:00:00,Não,Não,,Homicidio/Tentativa,Perseguição,Pessoa,Morta,,Adulto,Não identificado,Homem cis,Sem identificação,Sem identificação,Não identificado,Não se aplica,Não se aplica,Não se aplica,,Não se aplica,Não se aplica,Não se aplica,Civíl
Rio de Janeiro,"Itaúna - Complexo do Salgueiro, São Gonçalo - RJ, Brasil",SÃO GONÇALO,ITAUNA,-22.7917073,-43.0298226,2024-12-19,02:00:00,Não,Não,,Não identificado,,Pessoa,Morta,,Adulto,Não identificado,Homem cis,Sem identificação,Sem identificação,Não identificado,Não se aplica,Não se aplica,Não se aplica,,Não se aplica,Não se aplica,Não se aplica,Civíl
Pernambuco,"R. Ipiniras - Cordeiro, Recife - PE, 50721-330, Brasil",RECIFE,CORDEIRO,-8.048774478505134,-34.93440781150036,2024-12-19,00:00:00,Não,Não,,Homicidio/Tentativa,,Pessoa,Morta,29.0,Adulto,Negra,Homem cis,Sem identificação,Sem identificação,Mototaxista ,Não identificado,Não se aplica,Não se aplica,,Não se aplica,Não se aplica,Não se aplica,Civíl
Bahia,"Av. Luis Gonzaga, Renascer (Phoc II) - Camaçari - BA, Brasil",CAMACARI,RENASCER - PHOC II,-12.707083477589553,-38.335017830365445,2024-12-19,22:00:00,Não,Não,,Homicidio/Tentativa,,Pessoa,Morta,,Adulto,Não identificado,Homem cis,Automóvel,Sem identificação,Não identificado,Não se aplica,Não se aplica,Não se aplica,,Não se aplica,Não se aplica,Não se aplica,Civíl
Bahia,"Av. Afrânio Peixoto (Suburbana) - Lobato, Salvador - BA, Brasil",SALVADOR,LOBATO,-12.915270014353585,-38.48056373372955,2024-12-20,02:00:00,Não,Não,,Homicidio/Tentativa,,Pessoa,Morta,,Adulto,Negra,Homem cis,Sem identificação,Sem identificação,Não identificado,Não se aplica,Não se aplica,Não se aplica,,Não se aplica,Não se aplica,Não se aplica,Civíl
Rio de Janeiro,"Rua São Benedito - Santa Cruz, Rio de Janeiro - RJ, Brasil",RIO DE JANEIRO,SANTA CRUZ,-22.9318471,-43.6775718,2024-12-19,23:00:00,Sim,Não,,Tentativa/Roubo,,Pessoa,Morta,51.0,Adulto,Branca,Homem cis,Outros,Sem identificação,Agente de segurança,Não se aplica,Não se aplica,Não se aplica,,Inspetor,Polícia Penal,Fora de serviço,Agente
Rio de Janeiro,"Rua São Benedito - Santa Cruz, Rio de Janeiro - RJ, Brasil",RIO DE JANEIRO,SANTA CRUZ,-22.9318471,-43.6775718,2024-12-19,23:00:00,Sim,Não,,Tentativa/Roubo,,Pessoa,Morta,86.0,Idoso,Não identificado,Homem cis,Sem identificação,Bala perdida,Não identificado,Não se aplica,Não se aplica,Não se aplica,,Não se aplica,Não se aplica,Não se aplica,Civíl
Bahia,"BR-324 - Águas Claras, Salvador - BA, Brasil",SALVADOR,AGUAS CLARAS,-12.8849809,-38.4363985,2024-12-19,22:00:00,Não,Não,,Arrastão,,Pessoa,Ferida,39.0,Adulto,Branca,Mulher cis,Automóvel,Sem identificação,"Gestante,Outros",De folga,Não se aplica,Não se aplica,,Não se aplica,Não se aplica,Não se aplica,Civíl
Bahia,"BR-324 - Águas Claras, Salvador - BA, Brasil",SALVADOR,AGUAS CLARAS,-12.8849809,-38.4363985,2024-12-19,22:00:00,Não,Não,,Arrastão,,Pessoa,Ferida,10.0,Criança,Não identificado,Mulher cis,Automóvel,Sem identificação,Não identificado,Não se aplica,Não se aplica,Não se aplica,,Não se aplica,Não se aplica,Não se aplica,Civíl
Rio de Janeiro,"Morro São João- Engenho Novo, Rio de Janeiro - RJ, 20950-370, Brasil",RIO DE JANEIRO,ENGENHO NOVO,-22.908632687857427,-43.26500038,2024-12-19,15:00:00,Sim,Sim,UPP,Ação policial,,Pessoa,Ferida,10.0,Criança,Não identificado,Homem cis,Outros,Bala perdida,Não identificado,Não se aplica,Não se aplica,Não se aplica,,Não se aplica,Não se aplica,Não se aplica,Civíl
Rio de Janeiro,"Morro São João- Engenho Novo, Rio de Janeiro - RJ, 20950-370, Brasil",RIO DE JANEIRO,ENGENHO NOVO,-22.908632687857427,-43.26500038,2024-12-19,15:00:00,Sim,Sim,UPP,Ação policial,,Pessoa,Ferida,,Adulto,Não identificado,Homem cis,Sem identificação,Sem identificação,Não identificado,Não se aplica,Não se aplica,Não se aplica,,Não se aplica,Não se aplica,Não se aplica,Civíl
Rio de Janeiro,"Três Pontes - Santa Cruz, Rio de Janeiro - RJ, 23595, Brasil",RIO DE JANEIRO,SANTA CRUZ,-22.925412667478383,-43.65008614847946,2024-12-18,20:00:00,Não,Não,,Homicidio/Tentativa,,Pessoa,Morta,,Adulto,Não identificado,Homem cis,Sem identificação,Sem identificação,Não identificado,Não se aplica,Não se aplica,Não se aplica,,Não se aplica,Não se aplica,Não se aplica,Civíl
Bahia,"R. Francisco Ferraro - Nazaré, Salvador - BA, Brasil",SALVADOR,NAZARE,-12.981944668136064,-38.51039077046728,2024-12-19,13:00:00,Sim,Não,,Tentativa/Roubo,Perseguição,Pessoa,Ferida,5.0,Criança,Negra,Mulher cis,Sem identificação,Bala perdida,Não identificado,Não se aplica,Não se aplica,Não se aplica,,Não se aplica,Não se aplica,Não se aplica,Civíl
Bahia," Cosme de Farias, Salvador - BA, Brasil",SALVADOR,COSME DE FARIAS,-12.979845742488791,-38.49461560926333,2024-12-19,10:00:00,Sim,Sim, Rondesp Atlântico,Ação policial,,Pessoa,Morta,,Adulto,Negra,Homem cis,Sem identificação,Sem identificação,Não identificado,Não se aplica,Não se aplica,Não se aplica,,Não se aplica,Não se aplica,Não se aplica,Civíl
Bahia,"Baixa do Areal - Santa Cruz, Salvador - BA, Brasil",SALVADOR,SANTA CRUZ,-13.005021591206274,-38.47388001299596,2024-12-18,00:00:00,Sim,Sim,40º CIPM  ,Ação policial,,Pessoa,Morta,,Adulto,Não identificado,Homem cis,Sem identificação,Sem identificação,Não identificado,Não se aplica,Não se aplica,Não se aplica,,Não se aplica,Não se aplica,Não se aplica,Civíl
Pernambuco,"Tejucupapo - Tejucupapo - Goiana - PE, Brasil",GOIANA,TEJUCOPAPO,-7.6026735,-34.8918319,2024-12-18,00:00:00,Não,Não,,Homicidio/Tentativa,,Pessoa,Morta,22.0,Adulto,Não identificado,Homem cis,Sem identificação,Sem identificação,Não identificado,Não se aplica,Não se aplica,Não se aplica,,Não se aplica,Não se aplica,Não se aplica,Civíl
Pernambuco,"Loteamento Nova Era - R. Dezenove - Ponte dos Carvalhos - Cabo de Santo Agostinho - PE, 54580-805, Brasil",CABO DE SANTO AGOSTINHO,ENGENHO ILHA,-8.246577352300573,-34.986165024064256,2024-12-18,00:00:00,Não,Não,,Homicidio/Tentativa,,Pessoa,Ferida,29.0,Adulto,Não identificado,Homem cis,Sem identificação,Sem identificação,Não identificado,Não se aplica,Não se aplica,Não se aplica,,Não se aplica,Não se aplica,Não se aplica,Civíl
Bahia,"Itacaranha, Salvador - BA, Brasil",SALVADOR,ITACARANHA,-12.886502684545489,-38.48263437790985,2024-12-19,00:00:00,Não,Não,,Homicidio/Tentativa,,Pessoa,Morta,,Adulto,Não identificado,Homem cis,Sem identificação,Encontro de cadáver,Não identificado,Não se aplica,Não se aplica,Não se aplica,,Não se aplica,Não se aplica,Não se aplica,Civíl
Pernambuco,"Goiana - Goiana, PE, Brasil",GOIANA,GOIANA,-7.5630149,-35.0131428,2024-12-18,00:00:00,Não,Não,,Homicidio/Tentativa,,Pessoa,Morta,18.0,Adulto,Não identificado,Homem cis,Sem identificação,Sem identificação,Não identificado,Não se aplica,Não se aplica,Não se aplica,,Não se aplica,Não se aplica,Não se aplica,Civíl
Pernambuco,"1ª Travessa Santa Elizabete - Triunfo, Igarassu - PE, 53625-754, Brasil",IGARASSU,TRIUNFO,-7.873706927914683,-34.9029297184044,2024-12-18,00:00:00,Não,Não,,Homicidio/Tentativa,,Pessoa,Morta,27.0,Adulto,Não identificado,Homem cis,Sem identificação,Sem identificação,Não identificado,Não se aplica,Não se aplica,Não se aplica,,Não se aplica,Não se aplica,Não se aplica,Civíl
Bahia,"Monte Gordo, Camaçari - BA, Brasil",CAMACARI,MONTE GORDO,-12.6374908,-38.0823898,2024-12-18,07:00:00,Não,Não,,Homicidio/Tentativa,,Pessoa,Morta,,Adulto,Não identificado,Homem cis,Sem identificação,Sem identificação,Não identificado,Não se aplica,Não se aplica,Não se aplica,,Não se aplica,Não se aplica,Não se aplica,Civíl
Pernambuco,"R. do José Pequeno - Floriano, Jaboatão dos Guararapes - PE, 54240, Brasil",JABOATAO DOS GUARARAPES,FLORIANO,-8.083330296388734,-34.993257754372,2024-12-18,00:00:00,Não,Não,,Homicidio/Tentativa,,Pessoa,Morta,24.0,Adulto,Negra,Homem cis,Sem identificação,Sem identificação,Não identificado,Não se aplica,Não se aplica,Não se aplica,,Não se aplica,Não se aplica,Não se aplica,Civíl
Rio de Janeiro,"Rua Georgeta - Vila do Tinguá, Queimados - RJ, Brasil",QUEIMADOS,CENTRO,-22.707893,-43.5584785,2024-12-18,14:00:00,Não,Não,,Homicidio/Tentativa,,Pessoa,Morta,,Adulto,Não identificado,Homem cis,Outros,Sem identificação,Mototaxista ,De folga,Não se aplica,Não se aplica,,Não se aplica,Não se aplica,Não se aplica,Civíl
Rio de Janeiro,"Éden, São João de Meriti - RJ, Brasil",SÃO JOÃO DE MERITI,EDEN,-22.7910493,-43.3994297,2024-12-18,18:00:00,Não,Não,,Homicidio/Tentativa,,Pessoa,Morta,31.0,Adulto,Branca,Homem cis,Sem identificação,Sem identificação,Não identificado,Não se aplica,Não se aplica,Não se aplica,,Não se aplica,Não se aplica,Não se aplica,Civíl
Rio de Janeiro,"Éden, São João de Meriti - RJ, Brasil",SÃO JOÃO DE MERITI,EDEN,-22.7910493,-43.3994297,2024-12-18,18:00:00,Não,Não,,Homicidio/Tentativa,,Pessoa,Morta,,Adulto,Branca,Mulher cis,Outros,Sem identificação,Não identificado,Não se aplica,Não se aplica,Não se aplica,,Não se aplica,Não se aplica,Não se aplica,Civíl
Bahia,"R. Lindóia, Itinga - Salvador - BA",SALVADOR,ITINGA,-12.901255730502662,-38.34750792261546,2024-12-18,15:00:00,Não,Não,,Disputa,,Pessoa,Morta,5.0,Criança,Negra,Homem cis,Residência,Bala perdida,Não identificado,Não se aplica,Não se aplica,Não se aplica,,Não se aplica,Não se aplica,Não se aplica,Civíl
Pernambuco,"PE-035 - Centro, Igarassu - PE, 53610, Brasil",IGARASSU,CENTRO,-7.823907718410511,-34.91049258373459,2024-12-18,00:00:00,Não,Não,,Homicidio/Tentativa,,Pessoa,Morta,31.0,Adulto,Não identificado,Homem cis,Automóvel,Sem identificação,PPTE,Não se aplica,Não se aplica,Não se aplica,,Não se aplica,Não se aplica,Não se aplica,Civíl
Pernambuco,"PE-035 - Centro, Igarassu - PE, 53610, Brasil",IGARASSU,CENTRO,-7.823907718410511,-34.91049258373459,2024-12-18,00:00:00,Não,Não,,Homicidio/Tentativa,,Pessoa,Morta,33.0,Adulto,Negra,Homem cis,Automóvel,Sem identificação,PPTE,Não se aplica,Não se aplica,Não se aplica,,Não se aplica,Não se aplica,Não se aplica,Civíl
Pernambuco,"Engenho São Brás - Gurjaú, Moreno, PE, Brasil",MORENO,ENGENHO GURJAU DE CIMA,-8.217038655408333,-35.07751212088841,2024-12-17,00:00:00,Não,Não,,Homicidio/Tentativa,,Pessoa,Morta,,Adulto,Negra,Homem cis,Sem identificação,Sem identificação,Não identificado,Não se aplica,Não se aplica,Não se aplica,,Não se aplica,Não se aplica,Não se aplica,Civíl
Pernambuco,"Av. Brasília Formosa - Brasília Teimosa, Recife - PE, 51010-145, Brasil",RECIFE,BRASILIA TEIMOSA,-8.084591493172564,-34.87790225515966,2024-12-17,00:00:00,Não,Não,,Homicidio/Tentativa,,Pessoa,Ferida,30.0,Adulto,Não identificado,Homem cis,Sem identificação,Sem identificação,Não identificado,Não se aplica,Não se aplica,Não se aplica,,Não se aplica,Não se aplica,Não se aplica,Civíl
Pernambuco,"R. Luzitânia - Iputinga, Recife - PE, 50680-030, Brasil",RECIFE,IPUTINGA,-8.036188284375594,-34.93473448089367,2024-12-17,00:00:00,Não,Não,,Homicidio/Tentativa,,Pessoa,Morta,,Adulto,Não identificado,Homem cis,Sem identificação,Sem identificação,Não identificado,Não se aplica,Não se aplica,Não se aplica,,Não se aplica,Não se aplica,Não se aplica,Civíl
Pernambuco,"1 Travessa Carmelita - Cajueiro Seco, Jaboatão dos Guararapes - PE, Brasil",JABOATAO DOS GUARARAPES,CAJUEIRO SECO,-8.1854941,-34.9412366,2024-12-17,00:00:00,Não,Não,,Homicidio/Tentativa,,Pessoa,Morta,,Adulto,Negra,Homem cis,Sem identificação,Sem identificação,Não identificado,Não se aplica,Não se aplica,Não se aplica,,Não se aplica,Não se aplica,Não se aplica,Civíl
Bahia,"R. Santa Geórgia, Loteamento Santa Bárbara- Arraial do Retiro, Salvador - BA, Brasil",SALVADOR,ARRAIAL DO RETIRO,-12.9447228,-38.4630935,2024-12-17,22:00:00,Não,Não,,Homicidio/Tentativa,,Pessoa,Morta,,Adulto,Não identificado,Homem cis,Sem identificação,Sem identificação,Rifeiro,Não identificado,Não se aplica,Não se aplica,,Não se aplica,Não se aplica,Não se aplica,Civíl
Pernambuco,"R. do Amanhecer  - Águas Compridas, Olinda - PE, Brasil",OLINDA,AGUAS COMPRIDAS,-7.988886219327638,-34.898704091308225,2024-12-17,00:00:00,Não,Não,,Homicidio/Tentativa,,Pessoa,Morta,44.0,Adulto,Não identificado,Homem cis,Sem identificação,Sem identificação,Não identificado,Não se aplica,Não se aplica,Não se aplica,,Não se aplica,Não se aplica,Não se aplica,Civíl
Pernambuco,"Cidade Tabajara - R. Nestor Barbosa Lima - Tabajara, Olinda - PE, 53370-257, Brasil",OLINDA,TABAJARA,-7.9814041,-34.8621831,2024-12-17,17:00:00,Não,Não,,Homicidio/Tentativa,,Pessoa,Morta,,Adulto,Negra,Homem cis,Sem identificação,Sem identificação,Não identificado,Não se aplica,Não se aplica,Não se aplica,,Não se aplica,Não se aplica,Não se aplica,Civíl
Pernambuco,"Campo do Botafogo da Estância - R. Dr. Guimaraes - Jiquiá, Recife - PE, 50865-220, Brasil",RECIFE,JIQUIA,-8.0775789,-34.9320154,2024-12-17,00:00:00,Não,Não,,Homicidio/Tentativa,,Pessoa,Morta,20.0,Adulto,Não identificado,Homem cis,Outros,Encontro de cadáver,Não identificado,Não se aplica,Não se aplica,Não se aplica,,Não se aplica,Não se aplica,Não se aplica,Civíl
Bahia,"Milho, IAPI - Salvador - BA",SALVADOR,IAPI,-12.957385326872284,-38.4853541,2024-12-17,19:00:00,Sim,Sim,37ª CIPM,Ação policial,,Pessoa,Morta,,Adulto,Negra,Homem cis,Sem identificação,Sem identificação,Não identificado,Não se aplica,Não se aplica,Não se aplica,,Não se aplica,Não se aplica,Não se aplica,Civíl
Rio de Janeiro,"Centro, Queimados - RJ, 26383-257, Brasil",QUEIMADOS,CENTRO,-22.7123852,-43.5620486,2024-12-11,20:00:00,Não,Não,,Homicidio/Tentativa,,Pessoa,Morta,44.0,Adulto,Não identificado,Homem cis,Sem identificação,Sem identificação,Não identificado,Não se aplica,Não se aplica,Não se aplica,,Não se aplica,Não se aplica,Não se aplica,Civíl
Pernambuco,"Rod. Governador Mário Covas - Cabo de Santo Agostinho, PE, Brasil",CABO DE SANTO AGOSTINHO,NI,-8.308369312827558,-35.08823555565403,2024-12-17,10:30:00,Não,Não,,Homicidio/Tentativa,,Pessoa,Morta,,Adulto,Não identificado,Homem cis,Sem identificação,Encontro de cadáver,Não identificado,Não se aplica,Não se aplica,Não se aplica,,Não se aplica,Não se aplica,Não se aplica,Civíl
Bahia,"Itinga, Lauro de Freitas - BA, Brasil",LAURO DE FREITAS,ITINGA,-12.89969250396856,-38.34345439336769,2024-12-17,10:00:00,Sim,Sim,COP,Ação policial,,Pessoa,Morta,,Adulto,Negra,Homem cis,Residência,Sem identificação,Não identificado,Não se aplica,Não se aplica,Não se aplica,,Não se aplica,Não se aplica,Não se aplica,Civíl
Rio de Janeiro,"Morro do Banco, Rio de Janeiro - RJ, Brasil",RIO DE JANEIRO,ITANHANGA,-22.9877709,-43.2950513,2024-12-07,20:00:00,Sim,Sim,BOPE,Ação policial,,Pessoa,Morta,14.0,Adolescente,Não identificado,Homem cis,Sem identificação,Sem identificação,Não identificado,Não se aplica,Não se aplica,Não se aplica,,Não se aplica,Não se aplica,Não se aplica,Civíl
Pernambuco,"Rua Visconde de Garrett - Passarinho, Recife - PE, 52165-030, Brasil",RECIFE,PASSARINHO,-7.98374186824037,-34.91961502110031,2024-12-16,22:50:00,Não,Não,,Homicidio/Tentativa,,Pessoa,Ferida,30.0,Adulto,Não identificado,Homem cis,Residência,Sem identificação,PPTE,Não se aplica,Não se aplica,Não se aplica,,Não se aplica,Não se aplica,Não se aplica,Civíl
Pernambuco,"Rua Visconde de Garrett - Passarinho, Recife - PE, 52165-030, Brasil",RECIFE,PASSARINHO,-7.98374186824037,-34.91961502110031,2024-12-16,22:50:00,Não,Não,,Homicidio/Tentativa,,Pessoa,Morta,32.0,Adulto,Negra,Homem cis,Residência,Sem identificação,PPTE,Não se aplica,Não se aplica,Não se aplica,,Não se aplica,Não se aplica,Não se aplica,Civíl
Rio de Janeiro,"Estrada Adam Blumer - Jardim Esmeralda, Magé - RJ, 25908-683, Brasil",MAGÉ,JARDIM ESMERALDA,-22.5971679,-43.0403858,2024-12-16,20:00:00,Sim,Não,,Não identificado,,Pessoa,Morta,41.0,Adulto,Branca,Homem cis,Automóvel,Sem identificação,Agente de segurança,Não se aplica,Não se aplica,Não se aplica,,Sargento,Polícia Militar,Fora de serviço,Agente
Pernambuco,"Viaduto da CEASA - Jardim São Paulo, Recife - PE, Brasil",RECIFE,JARDIM SAO PAULO,-8.07518830159803,-34.9435875610896,2024-12-16,00:11:00,Não,Não,,Homicidio/Tentativa,,Pessoa,Morta,30.0,Adulto,Negra,Homem cis,Sem identificação,Sem identificação,Outros,Não se aplica,Não se aplica,Não se aplica,,Não se aplica,Não se aplica,Não se aplica,Civíl
Bahia,"Itacaranha, Salvador - BA, Brasil",SALVADOR,ITACARANHA,-12.8825336,-38.48279,2024-12-16,22:00:00,Não,Não,,Tentativa/Roubo,,Pessoa,Morta,,Adulto,Negra,Homem cis,Sem identificação,Sem identificação,Não identificado,Não se aplica,Não se aplica,Não se aplica,,Não se aplica,Não se aplica,Não se aplica,Civíl
Bahia,"BA - 093, Simões Filho - Bahia, Brasil",SIMOES FILHO,NI,-12.783328108916097,-38.41232838769684,2024-12-17,00:00:00,Não,Não,,Homicidio/Tentativa,,Pessoa,Morta,,Adulto,Não identificado,Homem cis,Sem identificação,Encontro de cadáver,Não identificado,Não se aplica,Não se aplica,Não se aplica,,Não se aplica,Não se aplica,Não se aplica,Civíl
Rio de Janeiro,"Rocinha, Rio de Janeiro - RJ, Brasil",RIO DE JANEIRO,ROCINHA,-22.987941,-43.2480087,2024-12-17,04:20:00,Sim,Sim,"BOPE, BPChq, BAC, GTM, GAM, GESAR",Operação policial,,Pessoa,Morta,,Adulto,Não identificado,Homem cis,Sem identificação,Sem identificação,Não identificado,Não se aplica,Não se aplica,Não se aplica,,Não se aplica,Não se aplica,Não se aplica,Civíl
Rio de Janeiro,"Rocinha, Rio de Janeiro - RJ, Brasil",RIO DE JANEIRO,ROCINHA,-22.987941,-43.2480087,2024-12-17,04:20:00,Sim,Sim,"BOPE, BPChq, BAC, GTM, GAM, GESAR",Operação policial,,Pessoa,Ferida,,Adulto,Não identificado,Homem cis,Sem identificação,Sem identificação,Não identificado,Não se aplica,Não se aplica,Não se aplica,,Não se aplica,Não se aplica,Não se aplica,Civíl
Rio de Janeiro,"Rocinha, Rio de Janeiro - RJ, Brasil",RIO DE JANEIRO,ROCINHA,-22.987941,-43.2480087,2024-12-17,04:20:00,Sim,Sim,"BOPE, BPChq, BAC, GTM, GAM, GESAR",Operação policial,,Pessoa,Ferida,,Adulto,Não identificado,Homem cis,Sem identificação,Sem identificação,Não identificado,Não se aplica,Não se aplica,Não se aplica,,Não se aplica,Não se aplica,Não se aplica,Civíl
Rio de Janeiro,"R. Nove - Vila Operária, Nova Iguaçu - RJ, 26015-260, Brasil",NOVA IGUAÇU,VILA OPERARIA,-22.735775722665416,-43.42919889004776,2024-12-16,20:00:00,Não,Não,,Homicidio/Tentativa,,Pessoa,Morta,,Adulto,Não identificado,Homem cis,Sem identificação,Sem identificação,Não identificado,Não se aplica,Não se aplica,Não se aplica,,Não se aplica,Não se aplica,Não se aplica,Civíl
Rio de Janeiro,"Morro da Primavera - Cavalcanti, Rio de Janeiro - RJ, 21370-280, Brasil",RIO DE JANEIRO,CAVALCANTI,-22.86902669,-43.31696145,2024-12-16,18:00:00,Sim,Sim,9 BPM (GAT),Ação policial,,Pessoa,Morta,,Adulto,Não identificado,Homem cis,Sem identificação,Sem identificação,Não identificado,Não se aplica,Não se aplica,Não se aplica,,Não se aplica,Não se aplica,Não se aplica,Civíl
Rio de Janeiro,"Morro da Primavera - Cavalcanti, Rio de Janeiro - RJ, 21370-280, Brasil",RIO DE JANEIRO,CAVALCANTI,-22.86902669,-43.31696145,2024-12-16,18:00:00,Sim,Sim,9 BPM (GAT),Ação policial,,Pessoa,Morta,,Adulto,Não identificado,Homem cis,Sem identificação,Sem identificação,Não identificado,Não se aplica,Não se aplica,Não se aplica,,Não se aplica,Não se aplica,Não se aplica,Civíl
Bahia,"BA-522 - Maria Quitéria - Nova Brasília, Candeias - BA, Brasil",CANDEIAS,NOVA BRASILIA,-12.667239202013414,-38.54774867922049,2024-12-16,13:00:00,Não,Não,,Tentativa/Roubo,,Pessoa,Morta,35.0,Adulto,Negra,Homem cis,Outros,Sem identificação,Outros,De folga,Não se aplica,Não se aplica,,Não se aplica,Não se aplica,Não se aplica,Civíl
Rio de Janeiro,"Av. Joaquim da Costa Lima - Parque Floresta, Belford Roxo - RJ, 26183-255, Brasil",BELFORD ROXO,PAULINE,-22.73320254122492,-43.34931186866455,2024-12-15,14:00:00,Sim,Não,,Homicidio/Tentativa,Presença de político,Pessoa,Ferida,,Adulto,Negra,Homem cis,Automóvel,Sem identificação,"Agente de segurança,Político",Não se aplica,Ex,Vereador,,Cabo,Polícia Militar,Aposentado / exonerado,Agente
Rio de Janeiro,"Carobinha - Rua Carobinha - Campo Grande, Rio de Janeiro - RJ, Brasil",RIO DE JANEIRO,CAMPO GRANDE,-22.8552526,-43.5333182,2024-12-16,14:00:00,Não,Não,,Homicidio/Tentativa,Ataques armados sobre rodas,Pessoa,Morta,,Adulto,Não identificado,Homem cis,Automóvel,Sem identificação,Motorista de aplicativo,Não identificado,Não se aplica,Não se aplica,,Não se aplica,Não se aplica,Não se aplica,Civíl
Pernambuco,"PE-022, Jaguarana, Paulista - PE, Brasil",PAULISTA,JAGUARANA,-7.928938717777087,-34.85862346238342,2024-12-15,00:00:00,Não,Não,,Homicidio/Tentativa,,Pessoa,Morta,17.0,Adolescente,Branca,Homem cis,Sem identificação,Encontro de cadáver,Não identificado,Não se aplica,Não se aplica,Não se aplica,,Não se aplica,Não se aplica,Não se aplica,Civíl
Pernambuco,"Renascer 2 - Pilar, Ilha de Itamaracá - PE, Brasil",ILHA DE ITAMARACA,PILAR,-7.750600299999999,-34.8330814,2024-12-14,00:00:00,Não,Não,,Homicidio/Tentativa,,Pessoa,Morta,13.0,Adolescente,Negra,Homem cis,Sem identificação,Sem identificação,Não identificado,Não se aplica,Não se aplica,Não se aplica,,Não se aplica,Não se aplica,Não se aplica,Civíl
Pernambuco,"Av. Sen. Nilo de Souza Coelho - Ouro Preto, Olinda - PE, 53300-380, Brasil",OLINDA,OURO PRETO,-7.995144242697144,-34.870100220567615,2024-12-15,00:00:00,Não,Não,,Homicidio/Tentativa,,Pessoa,Morta,27.0,Adulto,Negra,Homem cis,Residência,Sem identificação,Não identificado,Não se aplica,Não se aplica,Não se aplica,,Não se aplica,Não se aplica,Não se aplica,Civíl
Pernambuco,"Gurjau - Ponte dos Carvalhos - Cabo de Santo Agostinho - PE, 54510-000, Brasil",CABO DE SANTO AGOSTINHO,PONTE DOS CARVALHOS - GURJAU/BOM JESUS,-8.241528082219192,-35.05112977123419,2024-12-13,00:00:00,Não,Não,,Homicidio/Tentativa,,Pessoa,Morta,36.0,Adulto,Não identificado,Homem cis,Sem identificação,Encontro de cadáver,Não identificado,Não se aplica,Não se aplica,Não se aplica,,Não se aplica,Não se aplica,Não se aplica,Civíl
Bahia,"Praça da Revolução - Periperi, Salvador - BA, Brasil",SALVADOR,PERIPERI,-12.8652341,-38.4762239,2024-12-16,02:00:00,Não,Não,,Homicidio/Tentativa,,Pessoa,Morta,21.0,Adulto,Negra,Homem cis,Sem identificação,Sem identificação,Não identificado,Não se aplica,Não se aplica,Não se aplica,,Não se aplica,Não se aplica,Não se aplica,Civíl
Pernambuco,"Alto São Sebastião - Cavaleiro, Jaboatão dos Guararapes - PE, 54210-252, Brasil",JABOATAO DOS GUARARAPES,CAVALEIRO,-8.0924094,-34.9683377,2024-12-15,00:00:00,Não,Não,,Homicidio/Tentativa,,Pessoa,Morta,57.0,Adulto,Negra,Homem cis,Sem identificação,Sem identificação,Não identificado,Não se aplica,Não se aplica,Não se aplica,,Não se aplica,Não se aplica,Não se aplica,Civíl
Pernambuco,"Rua dos Jasmins - Pina, Recife - PE, 51010-176, Brasil",RECIFE,PINA,-8.085602176961693,-34.88440002220989,2024-12-13,00:00:00,Não,Não,,Homicidio/Tentativa,,Pessoa,Morta,38.0,Adulto,Negra,Homem cis,Sem identificação,Sem identificação,PPTE,Não se aplica,Não se aplica,Não se aplica,,Não se aplica,Não se aplica,Não se aplica,Civíl
Pernambuco,"Vila Claudete - Garapu, Cabo de Santo Agostinho - PE, 54527-710, Brasil",CABO DE SANTO AGOSTINHO,GARAPU,-8.2888542,-35.0205519,2024-12-14,00:00:00,Não,Não,,Homicidio/Tentativa,,Pessoa,Morta,27.0,Adulto,Não identificado,Homem cis,Sem identificação,Sem identificação,Não identificado,Não se aplica,Não se aplica,Não se aplica,,Não se aplica,Não se aplica,Não se aplica,Civíl
Bahia,"R. Arembepe, Incoop - Bela Vista, Camaçari - BA, Brasil",CAMACARI,BELA VISTA,-12.710684580122086,-38.31895747301636,2024-12-15,02:00:00,Não,Não,,Homicidio/Tentativa,Bar,Pessoa,Morta,22.0,Adulto,Não identificado,Homem cis,Bar,Sem identificação,Não identificado,Não se aplica,Não se aplica,Não se aplica,,Não se aplica,Não se aplica,Não se aplica,Civíl
Rio de Janeiro,"Rua Dona Perpétua - Jacutinga, Mesquita - RJ, 26551-200, Brasil",MESQUITA,JACUTINGA,-22.77235288376453,-43.41314775584617,2024-12-15,19:00:00,Não,Não,,Não identificado,,Pessoa,Morta,,Adulto,Negra,Homem cis,Sem identificação,Sem identificação,Não identificado,Não se aplica,Não se aplica,Não se aplica,,Não se aplica,Não se aplica,Não se aplica,Civíl
Bahia,"Fonte do Mato - Sarandy,, Candeias - BA, Brasil",CANDEIAS,SANRANDY,-12.66815662098862,-38.52725837983771,2024-12-15,00:00:00,Não,Não,,Homicidio/Tentativa,,Pessoa,Morta,,Adulto,Negra,Homem cis,Sem identificação,Encontro de cadáver,Não identificado,Não se aplica,Não se aplica,Não se aplica,,Não se aplica,Não se aplica,Não se aplica,Civíl
Rio de Janeiro,"Travessa Marquês - Morro do Galão - Barro Vermelho, São Gonçalo - RJ, Brasil",SÃO GONÇALO,BARRO VERMELHO I,-22.8405811,-43.080525,2024-12-15,23:30:00,Não,Não,,Tentativa/Roubo,,Pessoa,Ferida,21.0,Adulto,Não identificado,Homem cis,Sem identificação,Sem identificação,Não identificado,Não se aplica,Não se aplica,Não se aplica,,Não se aplica,Não se aplica,Não se aplica,Civíl
Rio de Janeiro,"Travessa Marquês - Morro do Galão - Barro Vermelho, São Gonçalo - RJ, Brasil",SÃO GONÇALO,BARRO VERMELHO I,-22.8405811,-43.080525,2024-12-15,23:30:00,Não,Não,,Tentativa/Roubo,,Pessoa,Morta,20.0,Adulto,Não identificado,Homem cis,Sem identificação,Sem identificação,Não identificado,Não se aplica,Não se aplica,Não se aplica,,Não se aplica,Não se aplica,Não se aplica,Civíl
Bahia,"R. Guilherme Marback, Bonfim, Salvador - BA, 40415-160, Brasil",SALVADOR,BONFIM,-12.925518303034789,-38.50644407290037,2024-12-15,14:00:00,Sim,Não,,Homicidio/Tentativa,Feminicídio/tentativa,Pessoa,Morta,26.0,Adulto,Branca,Mulher cis,Residência,Feminicídio/tentativa,Outros,De folga,Não se aplica,Não se aplica,,Não se aplica,Não se aplica,Não se aplica,Civíl
Bahia,"R.  Inocêncio Antônio da Rocha - Ponta Parada, Simões Filho - BA, Brasil",SIMOES FILHO,PONTO PARADA,-12.7943112115961,-38.3991522101541,2024-12-14,20:00:00,Não,Não,,Homicidio/Tentativa,Feminicídio/tentativa,Pessoa,Morta,45.0,Adulto,Não identificado,Mulher cis,Sem identificação,Feminicídio/tentativa,Não identificado,Não se aplica,Não se aplica,Não se aplica,,Não se aplica,Não se aplica,Não se aplica,Civíl
Bahia,"R.  Inocêncio Antônio da Rocha - Ponta Parada, Simões Filho - BA, Brasil",SIMOES FILHO,PONTO PARADA,-12.7943112115961,-38.3991522101541,2024-12-14,20:00:00,Não,Não,,Homicidio/Tentativa,Feminicídio/tentativa,Pessoa,Morta,48.0,Adulto,Negra,Homem cis,Residência,Suicídio,Não identificado,Não se aplica,Não se aplica,Não se aplica,,Não se aplica,Não se aplica,Não se aplica,Civíl
Rio de Janeiro,"Av. Eng. Souza Filho, 193, Itanhangá, Rio de Janeiro - RJ, 22753-035, Brasil",RIO DE JANEIRO,ITANHANGA,-22.987632861816504,-43.32884135274391,2024-12-14,19:30:00,Não,Não,,Ataque a civis,,Pessoa,Morta,54.0,Adulto,Não identificado,Homem cis,Sem identificação,Sem identificação,Não identificado,Não se aplica,Não se aplica,Não se aplica,,Não se aplica,Não se aplica,Não se aplica,Civíl
Rio de Janeiro,"Av. Eng. Souza Filho, 193, Itanhangá, Rio de Janeiro - RJ, 22753-035, Brasil",RIO DE JANEIRO,ITANHANGA,-22.987632861816504,-43.32884135274391,2024-12-14,19:30:00,Não,Não,,Ataque a civis,,Pessoa,Ferida,,Adulto,Não identificado,Mulher cis,Sem identificação,Sem identificação,Não identificado,Não se aplica,Não se aplica,Não se aplica,,Não se aplica,Não se aplica,Não se aplica,Civíl
Rio de Janeiro,"Av. Eng. Souza Filho, 193, Itanhangá, Rio de Janeiro - RJ, 22753-035, Brasil",RIO DE JANEIRO,ITANHANGA,-22.987632861816504,-43.32884135274391,2024-12-14,19:30:00,Não,Não,,Ataque a civis,,Pessoa,Ferida,,Adulto,Não identificado,Homem cis,Sem identificação,Sem identificação,Não identificado,Não se aplica,Não se aplica,Não se aplica,,Não se aplica,Não se aplica,Não se aplica,Civíl
Rio de Janeiro,"Av. Eng. Souza Filho, 193, Itanhangá, Rio de Janeiro - RJ, 22753-035, Brasil",RIO DE JANEIRO,ITANHANGA,-22.987632861816504,-43.32884135274391,2024-12-14,19:30:00,Não,Não,,Ataque a civis,,Pessoa,Morta,44.0,Adulto,Não identificado,Homem cis,Sem identificação,Sem identificação,Não identificado,Não se aplica,Não se aplica,Não se aplica,,Não se aplica,Não se aplica,Não se aplica,Civíl
Bahia,"Muribeca, São Francisco do Conde - BA, Brasil",SAO FRANCISCO DO CONDE,MURIBECA,-12.687399616025372,-38.61568658157779,2024-12-14,21:00:00,Não,Não,,Homicidio/Tentativa,,Pessoa,Morta,37.0,Adulto,Negra,Homem cis,Automóvel,Sem identificação,Não identificado,Não se aplica,Não se aplica,Não se aplica,,Não se aplica,Não se aplica,Não se aplica,Civíl
Bahia,"R. Silveira Martins - Saboeiro, Salvador - BA, Brasil",SALVADOR,SABOEIRO,-12.95952412892906,-38.44878493846851,2024-12-14,22:00:00,Não,Não,,Homicidio/Tentativa,,Pessoa,Morta,,Adulto,Negra,Homem cis,Sem identificação,Sem identificação,Não identificado,Não se aplica,Não se aplica,Não se aplica,,Não se aplica,Não se aplica,Não se aplica,Civíl
Rio de Janeiro,"R. Manoel da Silva Pereira - Prados Verdes, Nova Iguaçu - RJ, 26299-003, Brasil",NOVA IGUAÇU,PRADOS VERDES,-22.84635645511541,-43.60750908544207,2024-12-14,19:00:00,Sim,Não,,Ataque a civis,Bar,Pessoa,Ferida,24.0,Adulto,Não identificado,Homem cis,Bar,Chacina,Não identificado,Não se aplica,Não se aplica,Não se aplica,,Não se aplica,Não se aplica,Não se aplica,Civíl
Rio de Janeiro,"R. Manoel da Silva Pereira - Prados Verdes, Nova Iguaçu - RJ, 26299-003, Brasil",NOVA IGUAÇU,PRADOS VERDES,-22.84635645511541,-43.60750908544207,2024-12-14,19:00:00,Sim,Não,,Ataque a civis,Bar,Pessoa,Morta,24.0,Adulto,Não identificado,Homem cis,Bar,Chacina,Não identificado,Não se aplica,Não se aplica,Não se aplica,,Não se aplica,Não se aplica,Não se aplica,Civíl
Rio de Janeiro,"R. Manoel da Silva Pereira - Prados Verdes, Nova Iguaçu - RJ, 26299-003, Brasil",NOVA IGUAÇU,PRADOS VERDES,-22.84635645511541,-43.60750908544207,2024-12-14,19:00:00,Sim,Não,,Ataque a civis,Bar,Pessoa,Morta,39.0,Adulto,Não identificado,Homem cis,Bar,Chacina,Agente de segurança,Não se aplica,Não se aplica,Não se aplica,,Outros,Marinha,Fora de serviço,Agente
Rio de Janeiro,"R. Manoel da Silva Pereira - Prados Verdes, Nova Iguaçu - RJ, 26299-003, Brasil",NOVA IGUAÇU,PRADOS VERDES,-22.84635645511541,-43.60750908544207,2024-12-14,19:00:00,Sim,Não,,Ataque a civis,Bar,Pessoa,Morta,30.0,Adulto,Não identificado,Homem cis,Bar,Chacina,Não identificado,Não se aplica,Não se aplica,Não se aplica,,Não se aplica,Não se aplica,Não se aplica,Civíl
Rio de Janeiro,"R. Manoel da Silva Pereira - Prados Verdes, Nova Iguaçu - RJ, 26299-003, Brasil",NOVA IGUAÇU,PRADOS VERDES,-22.84635645511541,-43.60750908544207,2024-12-14,19:00:00,Sim,Não,,Ataque a civis,Bar,Pessoa,Ferida,35.0,Adulto,Não identificado,Homem cis,Bar,Chacina,Não identificado,Não se aplica,Não se aplica,Não se aplica,,Não se aplica,Não se aplica,Não se aplica,Civíl
Bahia,"Via Copec - Triângulo, Camaçari - BA, Brasil",CAMACARI,TRIANGULO,-12.692812241583278,-38.34223575661246,2024-12-14,14:00:00,Não,Não,,Homicidio/Tentativa,,Pessoa,Morta,21.0,Adulto,Não identificado,Homem cis,Outros,Sem identificação,Não identificado,Não se aplica,Não se aplica,Não se aplica,,Não se aplica,Não se aplica,Não se aplica,Civíl
Bahia,"Conjunto Parque das Algarobas - Santa Maria - Camaçari, BA",CAMACARI,SANTA MARIA,-12.717761650608642,-38.34490562929154,2024-12-14,05:40:00,Não,Não,,Homicidio/Tentativa,,Pessoa,Morta,,Adulto,Não identificado,Homem cis,Residência,Sem identificação,Não identificado,Não se aplica,Não se aplica,Não se aplica,,Não se aplica,Não se aplica,Não se aplica,Civíl
Bahia," Jardim Brasilia, Camaçari - BA, Brasil",CAMACARI,JARDIM BRASILIA,-12.70172,-38.3303118,2024-12-13,02:40:00,Não,Não,,Homicidio/Tentativa,,Pessoa,Ferida,,Adulto,Não identificado,Homem cis,Sem identificação,Sem identificação,Não identificado,Não se aplica,Não se aplica,Não se aplica,,Não se aplica,Não se aplica,Não se aplica,Civíl
Bahia,"R. da Prainha - Jardim Brasilia, Camaçari - BA, Brasil",CAMACARI,JARDIM BRASILIA,-12.703087238771662,-38.32883225732772,2024-12-14,02:00:00,Não,Não,,Homicidio/Tentativa,,Pessoa,Morta,17.0,Adolescente,Não identificado,Homem cis,Sem identificação,Sem identificação,Não identificado,Não se aplica,Não se aplica,Não se aplica,,Não se aplica,Não se aplica,Não se aplica,Civíl
Pernambuco,"PE-005, - Tiuma, São Lourenço da Mata - PE, 54737-200, Brasil",SAO LOURENCO DA MATA,TIUMA,-7.97914750138531,-35.07338683677063,2024-12-13,00:00:00,Não,Não,,Homicidio/Tentativa,,Pessoa,Morta,16.0,Adolescente,Negra,Homem cis,Sem identificação,Sem identificação,Não identificado,Não se aplica,Não se aplica,Não se aplica,,Não se aplica,Não se aplica,Não se aplica,Civíl
Pernambuco,"Rua Professora Arcelina Câmara - Jordão, Recife - PE, Brasil",RECIFE,JORDAO,-8.1383218,-34.9342569,2024-12-13,00:00:00,Não,Não,,Homicidio/Tentativa,,Pessoa,Morta,23.0,Adulto,Negra,Homem cis,Sem identificação,Sem identificação,Motorista de aplicativo,Não identificado,Não se aplica,Não se aplica,,Não se aplica,Não se aplica,Não se aplica,Civíl
Bahia,"Gravatá, Camaçari - BA, Brasil",CAMACARI,GRAVATA,-12.686352839849867,-38.33465807790986,2024-12-13,21:00:00,Não,Não,,Homicidio/Tentativa,,Pessoa,Morta,,Adulto,Negra,Homem cis,Sem identificação,Sem identificação,Não identificado,Não se aplica,Não se aplica,Não se aplica,,Não se aplica,Não se aplica,Não se aplica,Civíl
Bahia,"Coqueiral - Alto da Terezinha, Salvador - BA, Brasil",SALVADOR,ALTO DA TEREZINHA,-12.881109478257104,-38.47699618001502,2024-12-13,14:00:00,Sim,Sim,18ª CIPM (PETO),Ação policial,,Pessoa,Morta,,Adulto,Negra,Homem cis,Sem identificação,Sem identificação,PPTE,Não se aplica,Não se aplica,Não se aplica,,Não se aplica,Não se aplica,Não se aplica,Civíl
Rio de Janeiro,"R. Maria Jesus Pereira Silva - Lagoinha, Nova Iguaçu - RJ, Brasil",NOVA IGUAÇU,LAGOINHA,-22.8006776,-43.5979041,2024-12-13,15:00:00,Não,Não,,Não identificado,,Pessoa,Morta,,Adulto,Não identificado,Homem cis,Sem identificação,Sem identificação,Não identificado,Não se aplica,Não se aplica,Não se aplica,,Não se aplica,Não se aplica,Não se aplica,Civíl
Pernambuco,"Sítio dos Pintos, Recife - PE, Brasil",RECIFE,SITIO DOS PINTOS,-8.0131212,-34.958266,2024-12-13,00:00:00,Não,Não,,Homicidio/Tentativa,,Pessoa,Morta,26.0,Adulto,Negra,Homem cis,Residência,Sem identificação,Não identificado,Não se aplica,Não se aplica,Não se aplica,,Não se aplica,Não se aplica,Não se aplica,Civíl
Bahia,"Industrial - Camaçari, BA",CAMACARI,INDUSTRIAL,-12.716887513525174,-38.30898668294377,2024-12-12,20:00:00,Não,Não,,Homicidio/Tentativa,,Pessoa,Morta,21.0,Adulto,Não identificado,Homem cis,Sem identificação,Sem identificação,Não identificado,Não se aplica,Não se aplica,Não se aplica,,Não se aplica,Não se aplica,Não se aplica,Civíl
Bahia,"Bom Juá - Salvador, BA",SALVADOR,BOM JUA,-12.941237201453358,-38.47084581176524,2024-12-13,00:00:00,Não,Não,,Homicidio/Tentativa,,Pessoa,Morta,,Adulto,Não identificado,Homem cis,Sem identificação,Encontro de cadáver,Não identificado,Não se aplica,Não se aplica,Não se aplica,,Não se aplica,Não se aplica,Não se aplica,Civíl
Bahia,"R. Itamaraju - Verdes Horizontes, Camaçari - BA, Brasil",CAMACARI,VERDES HORIZONTES,-12.72668698969498,-38.31775883135817,2024-12-12,22:00:00,Não,Não,,Homicidio/Tentativa,,Pessoa,Morta,16.0,Adolescente,Não identificado,Homem cis,Sem identificação,Sem identificação,Não identificado,Não se aplica,Não se aplica,Não se aplica,,Não se aplica,Não se aplica,Não se aplica,Civíl
Rio de Janeiro,"Posse, Nova Iguaçu - RJ, Brasil",NOVA IGUAÇU,POSSE,-22.7350341,-43.4560525,2024-12-12,17:00:00,Sim,Não,,Tentativa/Roubo,,Pessoa,Ferida,37.0,Adulto,Não identificado,Homem cis,Outros,Sem identificação,Agente de segurança,Não se aplica,Não se aplica,Não se aplica,,Não identificado,Polícia Militar,Fora de serviço,Agente
Bahia,"Largo do Tanque, Liberdade - Salvador - BA, Brasil",SALVADOR,LIBERDADE,-12.9396587,-38.4906034,2024-12-13,02:00:00,Não,Não,,Briga,,Pessoa,Morta,,Adulto,Não identificado,Homem cis,Sem identificação,Sem identificação,Não identificado,Não se aplica,Não se aplica,Não se aplica,,Não se aplica,Não se aplica,Não se aplica,Civíl
Rio de Janeiro,"Morro da Fé - Complexo da Penha, Rio de Janeiro - RJ, 21210-154, Brasil",RIO DE JANEIRO,PENHA,-22.84466841,-43.29477785,2024-12-12,21:00:00,Não,Não,,Briga,,Pessoa,Morta,4.0,Criança,Branca,Homem cis,Automóvel,Sem identificação,Não identificado,Não se aplica,Não se aplica,Não se aplica,,Não se aplica,Não se aplica,Não se aplica,Civíl
Rio de Janeiro,"Rua Cândido de Oliveira - Rio Comprido, Rio de Janeiro - RJ, Brasil",RIO DE JANEIRO,RIO COMPRIDO,-22.9289545,-43.2055825,2024-12-12,14:00:00,Não,Não,,Não identificado,Outros,Pessoa,Morta,51.0,Adulto,Não identificado,Homem cis,Automóvel,Sem identificação,Não identificado,Não se aplica,Não se aplica,Não se aplica,,Não se aplica,Não se aplica,Não se aplica,Civíl
Rio de Janeiro,"R. Vinte e Quatro de Maio, Méier, Rio de Janeiro - RJ, 20725-001, Brasil",RIO DE JANEIRO,MEIER,-22.902754634812418,-43.2773479485365,2024-12-12,15:00:00,Sim,Não,,Tentativa/Roubo,,Pessoa,Ferida,18.0,Adulto,Não identificado,Mulher cis,Sem identificação,Sem identificação,Não identificado,Não se aplica,Não se aplica,Não se aplica,,Não se aplica,Não se aplica,Não se aplica,Civíl
Rio de Janeiro,"R. Vinte e Quatro de Maio, Méier, Rio de Janeiro - RJ, 20725-001, Brasil",RIO DE JANEIRO,MEIER,-22.902754634812418,-43.2773479485365,2024-12-12,15:00:00,Sim,Não,,Tentativa/Roubo,,Pessoa,Morta,52.0,Adulto,Branca,Homem cis,Sem identificação,Sem identificação,Agente de segurança,Não se aplica,Não se aplica,Não se aplica,,Sargento,Polícia Militar,Fora de serviço,Agente
Rio de Janeiro,"Avenida Brasil - Bangu, Rio de Janeiro - RJ, Brasil",RIO DE JANEIRO,BANGU,-22.8553624,-43.4881302,2024-12-12,11:00:00,Não,Não,,Homicidio/Tentativa,,Pessoa,Morta,,Não identificado,Não identificado,Homem cis,Sem identificação,Sem identificação,Não identificado,Não se aplica,Não se aplica,Não se aplica,,Não se aplica,Não se aplica,Não se aplica,Civíl
Pernambuco,"Alto do Progresso - Rua Alto Jardim Progresso, Nova Descoberta, Recife - PE, 52190-100, Brasil",RECIFE,NOVA DESCOBERTA,-8.005338875793504,-34.927682958432186,2024-12-11,00:00:00,Não,Não,,Tentativa/Roubo,,Pessoa,Ferida,25.0,Adulto,Não identificado,Homem cis,Sem identificação,Sem identificação,PPTE,Não se aplica,Não se aplica,Não se aplica,,Não se aplica,Não se aplica,Não se aplica,Civíl
Pernambuco,"Alto do Progresso - Rua Alto Jardim Progresso, Nova Descoberta, Recife - PE, 52190-100, Brasil",RECIFE,NOVA DESCOBERTA,-8.005338875793504,-34.927682958432186,2024-12-11,00:00:00,Não,Não,,Tentativa/Roubo,,Pessoa,Morta,52.0,Adulto,Negra,Homem cis,Sem identificação,Sem identificação,Não identificado,Não se aplica,Não se aplica,Não se aplica,,Não se aplica,Não se aplica,Não se aplica,Civíl
Pernambuco,"Av. Márcia de Windsor - João Paulo II, Camaragibe - PE, 54777-100, Brasil",CAMARAGIBE,JOAO PAULO II,-8.009053452627821,-35.00015458389152,2024-12-11,00:00:00,Não,Não,,Homicidio/Tentativa,,Pessoa,Morta,31.0,Adulto,Não identificado,Homem cis,Sem identificação,Sem identificação,Não identificado,Não se aplica,Não se aplica,Não se aplica,,Não se aplica,Não se aplica,Não se aplica,Civíl
Pernambuco,"Sítio dos Pintos, Recife - PE, Brasil",RECIFE,SITIO DOS PINTOS,-8.0131212,-34.958266,2024-12-11,00:00:00,Não,Não,,Homicidio/Tentativa,,Pessoa,Morta,24.0,Adulto,Não identificado,Homem cis,Sem identificação,Sem identificação,Não identificado,Não se aplica,Não se aplica,Não se aplica,,Não se aplica,Não se aplica,Não se aplica,Civíl
Pernambuco,"Sítio dos Pintos, Recife - PE, Brasil",RECIFE,SITIO DOS PINTOS,-8.0131212,-34.958266,2024-12-11,00:00:00,Não,Não,,Homicidio/Tentativa,,Pessoa,Ferida,,Adulto,Não identificado,Homem cis,Sem identificação,Sem identificação,Não identificado,Não se aplica,Não se aplica,Não se aplica,,Não se aplica,Não se aplica,Não se aplica,Civíl
Pernambuco,"Ponte dos Carvalhos, Cabo de Santo Agostinho - PE, Brasil",CABO DE SANTO AGOSTINHO,PONTE DOS CARVALHOS,-8.2352701,-34.9821188,2024-12-11,00:00:00,Não,Não,,Homicidio/Tentativa,,Pessoa,Morta,26.0,Adulto,Negra,Homem cis,Sem identificação,Sem identificação,PPTE,Não se aplica,Não se aplica,Não se aplica,,Não se aplica,Não se aplica,Não se aplica,Civíl
Pernambuco,"R. Barão do Capibaribe - Sítio dos Pintos, Recife - PE, 52171-160, Brasil",RECIFE,SITIO DOS PINTOS,-8.01888897580204,-34.955332197851256,2024-12-11,00:00:00,Não,Não,,Homicidio/Tentativa,,Pessoa,Morta,33.0,Adulto,Não identificado,Homem cis,Sem identificação,Sem identificação,Não identificado,Não se aplica,Não se aplica,Não se aplica,,Não se aplica,Não se aplica,Não se aplica,Civíl
Bahia,"R. Almeida Brandão - Itacaranha, Salvador - BA, Brasil",SALVADOR,ITACARANHA,-12.8871981,-38.4865236,2024-12-11,00:00:00,Não,Não,,Homicidio/Tentativa,,Pessoa,Morta,,Adulto,Negra,Homem cis,Sem identificação,Encontro de cadáver,Não identificado,Não se aplica,Não se aplica,Não se aplica,,Não se aplica,Não se aplica,Não se aplica,Civíl
Rio de Janeiro,"Areal - Rio das Pedras - Jacarepaguá, Rio de Janeiro - RJ, Brasil",RIO DE JANEIRO,JACAREPAGUA,-22.976653,-43.3366495,2024-12-11,17:00:00,Não,Não,,Homicidio/Tentativa,,Pessoa,Morta,16.0,Adolescente,Não identificado,Mulher cis,Sem identificação,Sem identificação,Não identificado,Não se aplica,Não se aplica,Não se aplica,,Não se aplica,Não se aplica,Não se aplica,Civíl
Rio de Janeiro,"Rua Rio Madeira - Rocha, São Gonçalo - RJ, Brasil",SÃO GONÇALO,ROCHA,-22.8354476,-43.0470074,2024-12-12,06:14:00,Sim,Sim,7º BPM,Tentativa/Roubo,,Pessoa,Morta,26.0,Adulto,Não identificado,Homem cis,Sem identificação,Sem identificação,Não identificado,Não se aplica,Não se aplica,Não se aplica,,Não se aplica,Não se aplica,Não se aplica,Civíl
Rio de Janeiro,"Ponto Chic, Nova Iguaçu - RJ, Brasil",NOVA IGUAÇU,PONTO CHIC,-22.7229128,-43.47074019999999,2024-12-07,23:40:00,Não,Não,,Briga,,Pessoa,Morta,30.0,Adulto,Negra,Homem cis,Sem identificação,Sem identificação,Motorista de aplicativo,De folga,Não se aplica,Não se aplica,,Não se aplica,Não se aplica,Não se aplica,Civíl
Bahia,"R. Estácio de Sá - Campinas de Pirajá, Salvador - BA, Brasil",SALVADOR,CAMPINAS DE PIRAJA,-12.925584881352227,-38.47012084213252,2024-12-11,18:00:00,Não,Não,,Homicidio/Tentativa,,Pessoa,Ferida,,Criança,Não identificado,Não identificado,Sem identificação,Bala perdida,Não identificado,Não se aplica,Não se aplica,Não se aplica,,Não se aplica,Não se aplica,Não se aplica,Civíl
Bahia,"R. Estácio de Sá - Campinas de Pirajá, Salvador - BA, Brasil",SALVADOR,CAMPINAS DE PIRAJA,-12.925584881352227,-38.47012084213252,2024-12-11,18:00:00,Não,Não,,Homicidio/Tentativa,,Pessoa,Ferida,,Criança,Não identificado,Não identificado,Sem identificação,Bala perdida,Não identificado,Não se aplica,Não se aplica,Não se aplica,,Não se aplica,Não se aplica,Não se aplica,Civíl
Bahia,"R. Estácio de Sá - Campinas de Pirajá, Salvador - BA, Brasil",SALVADOR,CAMPINAS DE PIRAJA,-12.925584881352227,-38.47012084213252,2024-12-11,18:00:00,Não,Não,,Homicidio/Tentativa,,Pessoa,Ferida,9.0,Criança,Não identificado,Homem cis,Sem identificação,Bala perdida,Não identificado,Não se aplica,Não se aplica,Não se aplica,,Não se aplica,Não se aplica,Não se aplica,Civíl
Bahia,"R. Estácio de Sá - Campinas de Pirajá, Salvador - BA, Brasil",SALVADOR,CAMPINAS DE PIRAJA,-12.925584881352227,-38.47012084213252,2024-12-11,18:00:00,Não,Não,,Homicidio/Tentativa,,Pessoa,Morta,37.0,Adulto,Não identificado,Homem cis,Sem identificação,Sem identificação,Não identificado,Não se aplica,Não se aplica,Não se aplica,,Não se aplica,Não se aplica,Não se aplica,Civíl
Pernambuco,"R. Oito, Curado I, Jaboatão dos Guararapes - PE, 54290-051, Brasil",JABOATAO DOS GUARARAPES,CURADO,-8.08570089515274,-34.98302506081875,2024-12-11,00:00:00,Não,Não,,Homicidio/Tentativa,,Pessoa,Morta,23.0,Adulto,Negra,Mulher cis,Residência,Sem identificação,Não identificado,Não se aplica,Não se aplica,Não se aplica,,Não se aplica,Não se aplica,Não se aplica,Civíl
